FMT, 128, 89, FMT, BBnNZ, Type,Length,Name,Format,Columns
FMT, 129, 31, PARM, QNf, TimeUS,Name,Value
FMT, 130, 50, GPS, QBIHBcLLeeEefB, TimeUS,Status,GMS,GWk,NSats,HDop,Lat,Lng,RAlt,Alt,Spd,GCrs,VZ,U
FMT, 131, 50, GPS2, QBIHBcLLeeEefB, TimeUS,Status,GMS,GWk,NSats,HDop,Lat,Lng,RAlt,Alt,Spd,GCrs,VZ,U
FMT, 194, 19, GPA, QCCCC, TimeUS,VDop,HAcc,VAcc,SAcc
FMT, 195, 19, GPA2, QCCCC, TimeUS,VDop,HAcc,VAcc,SAcc
FMT, 132, 49, IMU, QffffffIIfBB, TimeUS,GyrX,GyrY,GyrZ,AccX,AccY,AccZ,ErrG,ErrA,Temp,GyHlt,AcHlt
FMT, 133, 75, MSG, QZ, TimeUS,Message
FMT, 134, 39, RCIN, Qhhhhhhhhhhhhhh, TimeUS,C1,C2,C3,C4,C5,C6,C7,C8,C9,C10,C11,C12,C13,C14
FMT, 135, 35, RCOU, Qhhhhhhhhhhhh, TimeUS,Ch1,Ch2,Ch3,Ch4,Ch5,Ch6,Ch7,Ch8,Ch9,Ch10,Ch11,Ch12
FMT, 136, 15, RSSI, Qf, TimeUS,RXRSSI
FMT, 138, 25, BARO, Qffcf, TimeUS,Alt,Press,Temp,CRt
FMT, 139, 17, POWR, QCCH, TimeUS,Vcc,VServo,Flags
FMT, 146, 45, CMD, QHHHfffffff, TimeUS,CTot,CNum,CId,Prm1,Prm2,Prm3,Prm4,Lat,Lng,Alt
FMT, 147, 20, RAD, QBBBBBHH, TimeUS,RSSI,RemRSSI,TxBuf,Noise,RemNoise,RxErrors,Fixed
FMT, 149, 39, CAM, QIHLLeeccC, TimeUS,GPSTime,GPSWeek,Lat,Lng,Alt,RelAlt,Roll,Pitch,Yaw
FMT, 165, 29, ARSP, Qffcff, TimeUS,Airspeed,DiffPress,Temp,RawPress,Offset
FMT, 167, 25, CURR, QhhhHfh, TimeUS,Throttle,Volt,Curr,Vcc,CurrTot,Volt2
FMT, 166, 27, ATT, QccccCCCC, TimeUS,DesRoll,Roll,DesPitch,Pitch,DesYaw,Yaw,ErrRP,ErrYaw
FMT, 168, 30, MAG, QhhhhhhhhhB, TimeUS,MagX,MagY,MagZ,OfsX,OfsY,OfsZ,MOfsX,MOfsY,MOfsZ,Health
FMT, 171, 13, MODE, QMB, TimeUS,Mode,ModeNum
FMT, 196, 15, RFND, QCC, TimeUS,Dist1,Dist2
FMT, 137, 49, IMU2, QffffffIIfBB, TimeUS,GyrX,GyrY,GyrZ,AccX,AccY,AccZ,ErrG,ErrA,Temp,GyHlt,AcHlt
FMT, 150, 49, IMU3, QffffffIIfBB, TimeUS,GyrX,GyrY,GyrZ,AccX,AccY,AccZ,ErrG,ErrA,Temp,GyHlt,AcHlt
FMT, 140, 29, AHR2, QccCfLL, TimeUS,Roll,Pitch,Yaw,Alt,Lat,Lng
FMT, 182, 27, POS, QLLff, TimeUS,Lat,Lng,Alt,RelAlt
FMT, 141, 29, SIM, QccCfLL, TimeUS,Roll,Pitch,Yaw,Alt,Lat,Lng
FMT, 142, 47, EKF1, QccCffffffccc, TimeUS,Roll,Pitch,Yaw,VN,VE,VD,PN,PE,PD,GX,GY,GZ
FMT, 143, 30, EKF2, Qbbbcchhhhhh, TimeUS,Ratio,AZ1bias,AZ2bias,VWN,VWE,MN,ME,MD,MX,MY,MZ
FMT, 144, 31, EKF3, Qcccccchhhc, TimeUS,IVN,IVE,IVD,IPN,IPE,IPD,IMX,IMY,IMZ,IVT
FMT, 145, 31, EKF4, QcccccccbbBBH, TimeUS,SV,SP,SH,SMX,SMY,SMZ,SVT,OFN,EFE,FS,TS,SS
FMT, 151, 34, TERR, QBLLHffHH, TimeUS,Status,Lat,Lng,Spacing,TerrH,CHeight,Pending,Loaded
FMT, 152, 18, UBX1, QBHBBH, TimeUS,Instance,noisePerMS,jamInd,aPower,agcCnt
FMT, 153, 16, UBX2, QBbBbB, TimeUS,Instance,ofsI,magI,ofsQ,magQ
FMT, 154, 24, UBX3, QBfff, TimeUS,Instance,hAcc,vAcc,sAcc
FMT, 172, 42, GRAW, QIHBBddfBbB, TimeUS,WkMS,Week,numSV,sv,cpMes,prMes,doMes,mesQI,cno,lli
FMT, 173, 24, GRXH, QdHbBB, TimeUS,rcvTime,week,leapS,numMeas,recStat
FMT, 174, 41, GRXS, QddfBBBHBBBBB, TimeUS,prMes,cpMes,doMes,gnss,sv,freq,lock,cno,prD,cpD,doD,trk
FMT, 175, 63, SBFE, QIHBBdddfffff, TimeUS,TOW,WN,Mode,Err,Lat,Long,Height,Undul,Vn,Ve,Vu,COG
FMT, 155, 19, ESC1, Qcccc, TimeUS,RPM,Volt,Curr,Temp
FMT, 156, 19, ESC2, Qcccc, TimeUS,RPM,Volt,Curr,Temp
FMT, 157, 19, ESC3, Qcccc, TimeUS,RPM,Volt,Curr,Temp
FMT, 158, 19, ESC4, Qcccc, TimeUS,RPM,Volt,Curr,Temp
FMT, 159, 19, ESC5, Qcccc, TimeUS,RPM,Volt,Curr,Temp
FMT, 160, 19, ESC6, Qcccc, TimeUS,RPM,Volt,Curr,Temp
FMT, 161, 19, ESC7, Qcccc, TimeUS,RPM,Volt,Curr,Temp
FMT, 162, 19, ESC8, Qcccc, TimeUS,RPM,Volt,Curr,Temp
FMT, 163, 28, EKF5, QBhhhcccCC, TimeUS,normInnov,FIX,FIY,AFI,HAGL,offset,RI,meaRng,errHAGL
FMT, 169, 30, MAG2, QhhhhhhhhhB, TimeUS,MagX,MagY,MagZ,OfsX,OfsY,OfsZ,MOfsX,MOfsY,MOfsZ,Health
FMT, 170, 30, MAG3, QhhhhhhhhhB, TimeUS,MagX,MagY,MagZ,OfsX,OfsY,OfsZ,MOfsX,MOfsY,MOfsZ,Health
FMT, 176, 31, ACC1, QQfff, TimeUS,SampleUS,AccX,AccY,AccZ
FMT, 177, 31, ACC2, QQfff, TimeUS,SampleUS,AccX,AccY,AccZ
FMT, 178, 31, ACC3, QQfff, TimeUS,SampleUS,AccX,AccY,AccZ
FMT, 179, 31, GYR1, QQfff, TimeUS,SampleUS,GyrX,GyrY,GyrZ
FMT, 180, 31, GYR2, QQfff, TimeUS,SampleUS,GyrX,GyrY,GyrZ
FMT, 181, 31, GYR3, QQfff, TimeUS,SampleUS,GyrX,GyrY,GyrZ
FMT, 183, 35, PIDR, Qffffff, TimeUS,Des,P,I,D,FF,AFF
FMT, 184, 35, PIDP, Qffffff, TimeUS,Des,P,I,D,FF,AFF
FMT, 185, 35, PIDY, Qffffff, TimeUS,Des,P,I,D,FF,AFF
FMT, 186, 35, PIDA, Qffffff, TimeUS,Des,P,I,D,FF,AFF
FMT, 187, 35, PIDS, Qffffff, TimeUS,Des,P,I,D,FF,AFF
FMT, 164, 25, BAR2, Qffcf, TimeUS,Alt,Press,Temp,CRt
FMT, 197, 25, BAR3, Qffcf, TimeUS,Alt,Press,Temp,CRt
FMT, 188, 35, VIBE, QfffIII, TimeUS,VibeX,VibeY,VibeZ,Clip0,Clip1,Clip2
FMT, 189, 43, IMT, Qffffffff, TimeUS,DelT,DelvT,DelAX,DelAY,DelAZ,DelVX,DelVY,DelVZ
FMT, 190, 43, IMT2, Qffffffff, TimeUS,DelT,DelvT,DelAX,DelAY,DelAZ,DelVX,DelVY,DelVZ
FMT, 191, 43, IMT3, Qffffffff, TimeUS,DelT,DelvT,DelAX,DelAY,DelAZ,DelVX,DelVY,DelVZ
FMT, 192, 24, ORGN, QBLLe, TimeUS,Type,Lat,Lng,Alt
FMT, 193, 19, RPM, Qff, TimeUS,rpm1,rpm2
FMT, 2, 30, PM, QIHIhhhBH, TimeUS,LTime,MLC,gDt,GDx,GDy,GDz,I2CErr,INSErr
FMT, 3, 14, STRT, QBH, TimeUS,SType,CTot
FMT, 0, 27, CTUN, Qcccchhf, TimeUS,NavRoll,Roll,NavPitch,Pitch,ThrOut,RdrOut,AccY
FMT, 1, 33, NTUN, QCfccccfI, TimeUS,Yaw,WpDist,TargBrg,NavBrg,AltErr,Arspd,Alt,GSpdCM
FMT, 8, 31, SONR, QHfffBBf, TimeUS,DistCM,Volt,BaroAlt,GSpd,Thr,Cnt,Corr
FMT, 9, 14, ARM, QBH, TimeUS,ArmState,ArmChecks
FMT, 148, 27, ATRP, QBBcfff, TimeUS,Type,State,Servo,Demanded,Achieved,P
FMT, 10, 20, STAT, QBfBBBB, TimeUS,isFlying,isFlyProb,Armed,Safety,Crash,Still
FMT, 11, 28, OF, QBffff, TimeUS,Qual,flowX,flowY,bodyX,bodyY
FMT, 6, 59, TECS, Qffffffffffff, TimeUS,h,dh,h_dem,dh_dem,sp_dem,sp,dsp,ith,iph,th,ph,dsp_dem
MSG, 1003012832, ArduPlane V3.4.0 (3aa9eb0c)
MSG, 1003012842, PX4: c4f39028 NuttX: d48fa307
MSG, 1003012885, PX4v2 00370030 31334719 31383530
MSG, 1003012895, New mission
CMD, 1003012905, 16, 0, 16, 0, 0, 0, 0, 0, 0, 0
CMD, 1003012918, 16, 1, 22, 20, 0, 0, 0, 40.09171, -3.695886, 50
CMD, 1003012931, 16, 2, 16, 0, 0, 0, 0, 40.09145, -3.693014, 120
CMD, 1003012943, 16, 3, 16, 0, 0, 0, 0, 40.09133, -3.694416, 120
CMD, 1003012956, 16, 4, 206, 23.4, 0, 0, 0, 0, 0, 0
CMD, 1003012968, 16, 5, 16, 0, 0, 0, 0, 40.09113, -3.696679, 120
CMD, 1003012981, 16, 6, 206, 0, 0, 0, 0, 0, 0, 0
CMD, 1003013065, 16, 7, 16, 0, 0, 0, 0, 40.09101, -3.698081, 120
CMD, 1003013078, 16, 8, 16, 0, 0, 0, 0, 40.09164, -3.698216, 120
CMD, 1003013091, 16, 9, 16, 0, 0, 0, 0, 40.09176, -3.696815, 120
CMD, 1003013103, 16, 10, 206, 23.4, 0, 0, 0, 0, 0, 0
CMD, 1003013115, 16, 11, 16, 0, 0, 0, 0, 40.09195, -3.694649, 120
CMD, 1003013171, 16, 12, 206, 0, 0, 0, 0, 0, 0, 0
CMD, 1003013184, 16, 13, 16, 0, 0, 0, 0, 40.09207, -3.693248, 120
CMD, 1003013196, 16, 14, 16, 0, 0, 0, 0, 40.09039, -3.705878, 120
CMD, 1003013209, 16, 15, 21, 0, 0, 0, 0, 40.09175, -3.695582, 0
STRT, 1003013214, 5, 16
MODE, 1003013217, RTL, 11
MAG, 1003031191, 223, -80, 254, -183, 25, 200, 0, 0, 0, 1
MAG2, 1003031195, 128, -117, 356, 40, 539, -758, 0, 0, 0, 1
STAT, 1003031561, 0, 0, 1, 2, 0, 1
ATT, 1003051280, 0.00, -1.03, 0.00, -0.13, 0.00, 17.24, 0.07, 0.01
PIDR, 1003051285, 2.575, 2.369139, 0, 1.317219, 0, 0
PIDP, 1003051289, 0.3495829, 0.2164501, 0, 0.006140552, 0, 0
PIDY, 1003051293, 0, 0, 0, 0, 0, 0
PIDS, 1003051297, 0, 0, 0, 0, 0, 0
EKF1, 1003051311, 0.54, -3.08, 0.00, 0, 0, 0, 0, 0, 0, 0.00, 0.00, 0.00
EKF2, 1003051318, 0, 0, 0, 0.00, 0.00, 0, 0, 0, 0, 0, 0
EKF3, 1003051323, 0.00, 0.00, 0.00, 0.00, 0.00, 0.00, 0, 0, 0, 0.00
EKF4, 1003051336, 0.00, 0.00, 0.00, 0.00, 0.00, 0.00, 0.00, 0, 0, 128, 0, 8192
IMU, 1003051347, 0.01055224, 0.008661893, -6.972205E-06, 0.4496533, 0.2388286, -9.835039, 0, 0, 43.15512, 1, 1
IMU2, 1003051347, 0.02052268, -0.03982321, 0.06018478, 0.3958249, 0.1998532, -9.785574, 0, 0, 44, 1, 1
GPS, 1003131266, 1, 0, 0, 0, 99.99, 40.4703212, -3.8091502, -0.55, 501.68, 0.00, 0.00, 0, 1
GPA, 1003131270, 99.99, 623.04, 460.96, 276.81
MAG, 1003131331, 225, -83, 256, -183, 25, 200, 0, 0, 0, 1
MAG2, 1003131336, 128, -117, 356, 40, 539, -758, 0, 0, 0, 1
ATT, 1003151372, 0.00, -1.08, 0.00, -0.09, 0.00, 17.22, 0.08, 0.01
PIDR, 1003151378, 2.7, 2.484145, 0, 1.589383, 0, 0
PIDP, 1003151636, 0.2518309, 0.1559253, 0, 0.01392193, 0, 0
PIDY, 1003151641, 0, 0, 0, 0, 0, 0
PIDS, 1003151645, 0, 0, 0, 0, 0, 0
EKF1, 1003151658, 0.54, -3.08, 0.00, 0, 0, 0, 0, 0, 0, 0.00, 0.00, 0.00
EKF2, 1003151665, 0, 0, 0, 0.00, 0.00, 0, 0, 0, 0, 0, 0
EKF3, 1003151670, 0.00, 0.00, 0.00, 0.00, 0.00, 0.00, 0, 0, 0, 0.00
EKF4, 1003151683, 0.00, 0.00, 0.00, 0.00, 0.00, 0.00, 0.00, 0, 0, 128, 0, 8192
IMU, 1003151694, 0.0006181212, 0.005356146, 0.002495241, 0.4719666, 0.2724053, -9.823786, 0, 0, 43.28809, 1, 1
IMU2, 1003151694, 0.01635039, -0.04776725, 0.06423542, 0.5093849, 0.2239337, -9.848516, 0, 0, 43.875, 1, 1
MAG, 1003231241, 225, -79, 254, -183, 25, 200, 0, 0, 0, 1
MAG2, 1003231245, 126, -115, 354, 40, 539, -758, 0, 0, 0, 1
STAT, 1003231329, 0, 0, 1, 2, 0, 1
ATT, 1003251310, 0.00, -1.05, 0.00, 0.03, 0.00, 17.22, 0.08, 0.01
PIDR, 1003251315, 2.625, 2.415141, 0, 1.35078, 0, 0
PIDP, 1003251319, -0.04957446, -0.03069485, 0, -0.003635434, 0, 0
PIDY, 1003251323, 0, 0, 0, 0, 0, 0
PIDS, 1003251327, 0, 0, 0, 0, 0, 0
EKF1, 1003251341, 0.54, -3.08, 0.00, 0, 0, 0, 0, 0, 0, 0.00, 0.00, 0.00
EKF2, 1003251348, 0, 0, 0, 0.00, 0.00, 0, 0, 0, 0, 0, 0
EKF3, 1003251357, 0.00, 0.00, 0.00, 0.00, 0.00, 0.00, 0, 0, 0, 0.00
EKF4, 1003251370, 0.00, 0.00, 0.00, 0.00, 0.00, 0.00, 0.00, 0, 0, 128, 0, 8192
IMU, 1003251381, 0.006999767, 0.005706703, 0.002029926, 0.4588475, 0.2494478, -9.827306, 0, 0, 43.33241, 1, 1
IMU2, 1003251381, 0.02333723, -0.04958115, 0.06190053, 0.5303785, 0.2307777, -9.899357, 0, 0, 43.875, 1, 1
GPS, 1003331174, 1, 0, 0, 0, 99.99, 40.4703212, -3.8091502, -0.57, 501.68, 0.00, 0.00, 0, 1
GPA, 1003331216, 99.99, 643.92, 475.76, 276.84
MAG, 1003331390, 226, -79, 256, -183, 25, 200, 0, 0, 0, 1
MAG2, 1003331394, 126, -115, 353, 40, 539, -758, 0, 0, 0, 1
ATT, 1003351399, 0.00, -0.97, 0.00, 0.18, 0.00, 17.20, 0.09, 0.01
PIDR, 1003351404, 2.425, 2.231131, 0, 1.451615, 0, 0
PIDP, 1003351409, -0.4282552, -0.2651613, 0, -0.06650882, 0, 0
PIDY, 1003351413, 0, 0, 0, 0, 0, 0
PIDS, 1003351417, 0, 0, 0, 0, 0, 0
EKF1, 1003351430, 0.54, -3.08, 0.00, 0, 0, 0, 0, 0, 0, 0.00, 0.00, 0.00
EKF2, 1003351442, 0, 0, 0, 0.00, 0.00, 0, 0, 0, 0, 0, 0
EKF3, 1003351447, 0.00, 0.00, 0.00, 0.00, 0.00, 0.00, 0, 0, 0, 0.00
EKF4, 1003351460, 0.00, 0.00, 0.00, 0.00, 0.00, 0.00, 0.00, 0, 0, 128, 0, 8192
IMU, 1003351471, -0.001895149, 0.004066574, 0.0001895356, 0.4560771, 0.1633346, -9.826498, 0, 0, 43.28809, 1, 1
IMU2, 1003351471, 0.02069203, -0.04643165, 0.05861139, 0.5396859, 0.05249812, -9.935844, 0, 0, 43.875, 1, 1
MAG, 1003431265, 224, -80, 255, -183, 25, 200, 0, 0, 0, 1
MAG2, 1003431269, 125, -115, 353, 40, 539, -758, 0, 0, 0, 1
STAT, 1003433903, 0, 0, 1, 2, 0, 1
ATT, 1003453902, 0.00, -0.98, 0.00, 0.03, 0.00, 17.17, 0.09, 0.01
PIDR, 1003453907, 2.45, 2.254132, 0, 0.6459578, 0, 0
PIDP, 1003453911, -0.05282573, -0.03270793, 0, -0.05771613, 0, 0
PIDY, 1003453915, 0, 0, 0, 0, 0, 0
PIDS, 1003453919, 0, 0, 0, 0, 0, 0
EKF1, 1003453933, 0.54, -3.08, 0.00, 0, 0, 0, 0, 0, 0, 0.00, 0.00, 0.00
EKF2, 1003453940, 0, 0, 0, 0.00, 0.00, 0, 0, 0, 0, 0, 0
EKF3, 1003453945, 0.00, 0.00, 0.00, 0.00, 0.00, 0.00, 0, 0, 0, 0.00
EKF4, 1003453958, 0.00, 0.00, 0.00, 0.00, 0.00, 0.00, 0.00, 0, 0, 128, 0, 8192
IMU, 1003453969, 0.03021096, 0.008876005, 0.00256616, 0.4438156, 0.2436516, -9.844425, 0, 0, 43.19945, 1, 1
IMU2, 1003453969, 0.04446767, -0.04538755, 0.0612101, 0.5371705, 0.07097458, -9.906456, 0, 0, 43.75, 1, 1
GPS, 1003531201, 1, 0, 0, 0, 99.99, 40.4703212, -3.8091502, -0.55, 501.68, 0.00, 0.00, 0, 1
GPA, 1003531205, 99.99, 9.44, 490.56, 276.87
MAG, 1003531264, 222, -77, 255, -183, 25, 200, 0, 0, 0, 1
MAG2, 1003531269, 126, -115, 353, 40, 539, -758, 0, 0, 0, 1
ATT, 1003551700, 0.00, -0.89, 0.00, -0.09, 0.00, 17.16, 0.07, 0.01
PIDR, 1003551705, 2.225, 2.04712, 0, 0.666684, 0, 0
PIDP, 1003551709, 0.2433731, 0.1506885, 0, 0.02631892, 0, 0
PIDY, 1003551713, 0, 0, 0, 0, 0, 0
PIDS, 1003551717, 0, 0, 0, 0, 0, 0
EKF1, 1003551731, 0.54, -3.08, 0.00, 0, 0, 0, 0, 0, 0, 0.00, 0.00, 0.00
EKF2, 1003551737, 0, 0, 0, 0.00, 0.00, 0, 0, 0, 0, 0, 0
EKF3, 1003551742, 0.00, 0.00, 0.00, 0.00, 0.00, 0.00, 0, 0, 0, 0.00
EKF4, 1003551841, 0.00, 0.00, 0.00, 0.00, 0.00, 0.00, 0.00, 0, 0, 128, 0, 8192
IMU, 1003551852, 0.02259992, 0.005409876, 0.002080889, 0.4834159, 0.2179388, -9.814313, 0, 0, 43.24377, 1, 1
IMU2, 1003551852, 0.04166461, -0.0460831, 0.06188561, 0.563664, 0.170804, -9.910582, 0, 0, 43.875, 1, 1
MAG, 1003631163, 226, -78, 258, -183, 25, 200, 0, 0, 0, 1
MAG2, 1003631168, 126, -115, 353, 40, 539, -758, 0, 0, 0, 1
STAT, 1003631258, 0, 0, 1, 2, 0, 1
STAT, 1003631299, 0, 0, 1, 2, 0, 1
ATT, 1003651421, 0.00, -0.92, 0.00, -0.08, 0.00, 17.14, 0.07, 0.01
PIDR, 1003651443, 2.3, 2.116124, 0, 1.437379, 0, 0
PIDP, 1003651447, 0.2193668, 0.1358246, 0, 0.08008032, 0, 0
PIDY, 1003651452, 0, 0, 0, 0, 0, 0
PIDS, 1003651456, 0, 0, 0, 0, 0, 0
EKF1, 1003651469, 0.54, -3.08, 0.00, 0, 0, 0, 0, 0, 0, 0.00, 0.00, 0.00
EKF2, 1003651476, 0, 0, 0, 0.00, 0.00, 0, 0, 0, 0, 0, 0
EKF3, 1003651481, 0.00, 0.00, 0.00, 0.00, 0.00, 0.00, 0, 0, 0, 0.00
EKF4, 1003651494, 0.00, 0.00, 0.00, 0.00, 0.00, 0.00, 0.00, 0, 0, 128, 0, 8192
IMU, 1003651535, -0.003379859, 0.0004780196, 0.001690966, 0.4779032, 0.254548, -9.856949, 0, 0, 43.33241, 1, 1
IMU2, 1003651535, 0.0156416, -0.05330627, 0.06335014, 0.5390599, 0.187966, -9.843862, 0, 0, 43.875, 1, 1
GPS, 1003731134, 1, 0, 0, 0, 99.99, 40.4703212, -3.8091502, -0.51, 501.68, 0.00, 0.00, 0, 1
GPA, 1003731139, 99.99, 30.32, 505.32, 276.90
MAG, 1003731212, 225, -78, 257, -183, 25, 200, 0, 0, 0, 1
MAG2, 1003731216, 128, -116, 355, 40, 539, -758, 0, 0, 0, 1
ATT, 1003751390, 0.00, -0.91, 0.00, -0.06, 0.00, 17.12, 0.07, 0.02
PIDR, 1003751395, 2.275, 2.093122, 0, 1.218356, 0, 0
PIDP, 1003751399, 0.1690982, 0.1047, 0, 0.05923851, 0, 0
PIDY, 1003751403, 0, 0, 0, 0, 0, 0
PIDS, 1003751407, 0, 0, 0, 0, 0, 0
EKF1, 1003751421, 0.54, -3.08, 0.00, 0, 0, 0, 0, 0, 0, 0.00, 0.00, 0.00
EKF2, 1003751428, 0, 0, 0, 0.00, 0.00, 0, 0, 0, 0, 0, 0
EKF3, 1003751433, 0.00, 0.00, 0.00, 0.00, 0.00, 0.00, 0, 0, 0, 0.00
EKF4, 1003751446, 0.00, 0.00, 0.00, 0.00, 0.00, 0.00, 0.00, 0, 0, 128, 0, 8192
IMU, 1003751463, 0.005169855, 0.004258837, 0.00251785, 0.4838362, 0.1986305, -9.822663, 0, 0, 43.28809, 1, 1
IMU2, 1003751463, 0.02567263, -0.05262364, 0.06100039, 0.4830351, 0.1163415, -9.858622, 0, 0, 44, 1, 1
MAG, 1003831106, 227, -82, 253, -183, 25, 200, 0, 0, 0, 1
MAG2, 1003831111, 128, -117, 355, 40, 539, -758, 0, 0, 0, 1
STAT, 1003831275, 0, 0, 1, 2, 0, 1
ATT, 1003851555, 0.00, -0.96, 0.00, -0.12, 0.00, 17.09, 0.07, 0.01
PIDR, 1003851560, 2.4, 2.208129, 0, 1.381438, 0, 0
PIDP, 1003851565, 0.3213577, 0.198974, 0, 0.04535047, 0, 0
PIDY, 1003851569, 0, 0, 0, 0, 0, 0
PIDS, 1003851573, 0, 0, 0, 0, 0, 0
EKF1, 1003851586, 0.54, -3.08, 0.00, 0, 0, 0, 0, 0, 0, 0.00, 0.00, 0.00
EKF2, 1003851593, 0, 0, 0, 0.00, 0.00, 0, 0, 0, 0, 0, 0
EKF3, 1003851598, 0.00, 0.00, 0.00, 0.00, 0.00, 0.00, 0, 0, 0, 0.00
EKF4, 1003851611, 0.00, 0.00, 0.00, 0.00, 0.00, 0.00, 0.00, 0, 0, 128, 0, 8192
IMU, 1003851622, 0.001918259, 0.004021283, 0.001020381, 0.4510985, 0.2521579, -9.827883, 0, 0, 43.33241, 1, 1
IMU2, 1003851622, 0.01812564, -0.04659115, 0.05878506, 0.5217035, 0.2136556, -9.899535, 0, 0, 43.875, 1, 1
GPS, 1003930892, 1, 0, 0, 0, 99.99, 40.4703212, -3.8091502, -0.49, 501.68, 0.00, 0.00, 0, 1
GPA, 1003930897, 99.99, 51.28, 520.08, 276.93
MAG, 1003931156, 224, -80, 255, -183, 25, 200, 0, 0, 0, 1
MAG2, 1003931161, 128, -117, 355, 40, 539, -758, 0, 0, 0, 1
ATT, 1003951252, 0.00, -0.95, 0.00, -0.19, 0.00, 17.08, 0.07, 0.01
PIDR, 1003951257, 2.375, 2.185128, 0, 1.281492, 0, 0
PIDP, 1003951262, 0.4960275, 0.3071237, 0, 0.07468675, 0, 0
PIDY, 1003951266, 0, 0, 0, 0, 0, 0
PIDS, 1003951270, 0, 0, 0, 0, 0, 0
EKF1, 1003951283, 0.54, -3.08, 0.00, 0, 0, 0, 0, 0, 0, 0.00, 0.00, 0.00
EKF2, 1003951290, 0, 0, 0, 0.00, 0.00, 0, 0, 0, 0, 0, 0
EKF3, 1003951295, 0.00, 0.00, 0.00, 0.00, 0.00, 0.00, 0, 0, 0, 0.00
EKF4, 1003951308, 0.00, 0.00, 0.00, 0.00, 0.00, 0.00, 0.00, 0, 0, 128, 0, 8192
IMU, 1003951319, 0.004254529, 0.006596897, 0.00159882, 0.4752514, 0.2217846, -9.850529, 0, 0, 43.28809, 1, 1
IMU2, 1003951319, 0.02277001, -0.04700672, 0.06084241, 0.4560528, 0.1953769, -9.829039, 0, 0, 43.875, 1, 1
MAG, 1004031255, 225, -76, 257, -183, 25, 200, 0, 0, 0, 1
MAG2, 1004031263, 127, -116, 355, 40, 539, -758, 0, 0, 0, 1
STAT, 1004031596, 0, 0, 1, 2, 0, 1
ATT, 1004051235, 0.00, -0.95, 0.00, -0.10, 0.00, 17.07, 0.08, 0.01
PIDR, 1004051240, 2.375, 2.185128, 0, 0.3328443, 0, 0
PIDP, 1004051244, 0.2706548, 0.1675804, 0, 0.004637825, 0, 0
PIDY, 1004051248, 0, 0, 0, 0, 0, 0
PIDS, 1004051252, 0, 0, 0, 0, 0, 0
EKF1, 1004051301, 0.54, -3.08, 0.00, 0, 0, 0, 0, 0, 0, 0.00, 0.00, 0.00
EKF2, 1004051308, 0, 0, 0, 0.00, 0.00, 0, 0, 0, 0, 0, 0
EKF3, 1004051313, 0.00, 0.00, 0.00, 0.00, 0.00, 0.00, 0, 0, 0, 0.00
EKF4, 1004051326, 0.00, 0.00, 0.00, 0.00, 0.00, 0.00, 0.00, 0, 0, 128, 0, 8192
IMU, 1004051337, 0.03850541, 0.01261636, 0.0003695943, 0.4792181, 0.2311066, -9.787447, 0, 0, 43.24377, 1, 1
IMU2, 1004051337, 0.05285781, -0.04767285, 0.06359673, 0.5125321, 0.07940705, -9.846767, 0, 0, 43.875, 1, 1
GPS, 1004131228, 1, 0, 0, 0, 99.99, 40.4703212, -3.8091502, -0.55, 501.68, 0.00, 0.00, 0, 1
GPA, 1004131233, 99.99, 72.24, 534.92, 276.94
MAG, 1004131324, 223, -80, 256, -183, 25, 200, 0, 0, 0, 1
MAG2, 1004131329, 129, -116, 356, 40, 539, -758, 0, 0, 0, 1
ATT, 1004151446, 0.00, -0.92, 0.00, 0.05, 0.00, 17.03, 0.08, 0.01
PIDR, 1004151451, 2.3, 2.116124, 0, 0.6135241, 0, 0
PIDP, 1004151455, -0.1054029, -0.06526197, 0, -0.04253351, 0, 0
PIDY, 1004151459, 0, 0, 0, 0, 0, 0
PIDS, 1004151463, 0, 0, 0, 0, 0, 0
EKF1, 1004151477, 0.54, -3.08, 0.00, 0, 0, 0, 0, 0, 0, 0.00, 0.00, 0.00
EKF2, 1004151484, 0, 0, 0, 0.00, 0.00, 0, 0, 0, 0, 0, 0
EKF3, 1004151489, 0.00, 0.00, 0.00, 0.00, 0.00, 0.00, 0, 0, 0, 0.00
EKF4, 1004151502, 0.00, 0.00, 0.00, 0.00, 0.00, 0.00, 0.00, 0, 0, 128, 0, 8192
IMU, 1004151513, 0.02351518, 0.009044646, 0.002180008, 0.4699318, 0.3038917, -9.8519, 0, 0, 43.24377, 1, 1
IMU2, 1004151513, 0.0423583, -0.04813258, 0.06149495, 0.4778316, 0.1593745, -9.929626, 0, 0, 44, 1, 1
UBX1, 1004191291, 0, 104, 7, 1, 1387
UBX2, 1004191365, 0, -32, 104, 5, 109
MAG, 1004231150, 227, -79, 256, -183, 25, 200, 0, 0, 0, 1
MAG2, 1004231155, 127, -117, 354, 40, 539, -758, 0, 0, 0, 1
STAT, 1004231241, 0, 0, 1, 2, 0, 1
ATT, 1004251255, 0.00, -0.90, 0.00, -0.01, 0.00, 17.01, 0.10, 0.01
PIDR, 1004251261, 2.25, 2.070121, 0, 1.601596, 0, 0
PIDP, 1004251265, 0.04384616, 0.02714808, 0, 0.01558121, 0, 0
PIDY, 1004251269, 0, 0, 0, 0, 0, 0
PIDS, 1004251273, 0, 0, 0, 0, 0, 0
EKF1, 1004251287, 0.54, -3.08, 0.00, 0, 0, 0, 0, 0, 0, 0.00, 0.00, 0.00
EKF2, 1004251294, 0, 0, 0, 0.00, 0.00, 0, 0, 0, 0, 0, 0
EKF3, 1004251298, 0.00, 0.00, 0.00, 0.00, 0.00, 0.00, 0, 0, 0, 0.00
EKF4, 1004251312, 0.00, 0.00, 0.00, 0.00, 0.00, 0.00, 0.00, 0, 0, 128, 0, 8192
IMU, 1004251323, -0.009180296, 0.00381382, 0.001387603, 0.4832006, 0.2438353, -9.831272, 0, 0, 43.28809, 1, 1
IMU2, 1004251323, 0.009841915, -0.0498822, 0.06268476, 0.4693591, 0.08707792, -9.811083, 0, 0, 44, 1, 1
GPS, 1004331105, 1, 0, 0, 0, 99.99, 40.4703212, -3.8091502, -0.53, 501.68, 0.00, 0.00, 0, 1
GPA, 1004331109, 99.99, 93.12, 549.68, 276.97
MAG, 1004331170, 223, -80, 257, -183, 25, 200, 0, 0, 0, 1
MAG2, 1004331175, 125, -116, 354, 40, 539, -758, 0, 0, 0, 1
ATT, 1004351309, 0.00, -1.11, 0.00, -0.25, 0.00, 17.01, 0.10, 0.01
PIDR, 1004351314, 2.775, 2.55315, 0, 2.346283, 0, 0
PIDP, 1004351347, 0.6533142, 0.4045103, 0, 0.1256084, 0, 0
PIDY, 1004351352, 0, 0, 0, 0, 0, 0
PIDS, 1004351356, 0, 0, 0, 0, 0, 0
EKF1, 1004351369, 0.54, -3.08, 0.00, 0, 0, 0, 0, 0, 0, 0.00, 0.00, 0.00
EKF2, 1004351376, 0, 0, 0, 0.00, 0.00, 0, 0, 0, 0, 0, 0
EKF3, 1004351381, 0.00, 0.00, 0.00, 0.00, 0.00, 0.00, 0, 0, 0, 0.00
EKF4, 1004351394, 0.00, 0.00, 0.00, 0.00, 0.00, 0.00, 0.00, 0, 0, 128, 0, 8192
IMU, 1004351405, -0.02378017, 0.004761009, 0.00138611, 0.4341672, 0.3906172, -9.946298, 0, 0, 43.28809, 1, 1
IMU2, 1004351405, -0.01458654, -0.05252634, 0.06005363, 0.5025199, 0.3166943, -9.982656, 0, 0, 44, 1, 1
MAG, 1004431041, 224, -81, 256, -183, 25, 200, 0, 0, 0, 1
MAG2, 1004431045, 126, -116, 354, 40, 539, -758, 0, 0, 0, 1
STAT, 1004431137, 0, 0, 1, 2, 0, 1
ATT, 1004451380, 0.00, -1.01, 0.00, -0.39, 0.00, 16.99, 0.09, 0.01
PIDR, 1004451385, 2.525, 2.323136, 0, 2.374246, 0, 0
PIDP, 1004451389, 0.9984761, 0.6182231, 0, 0.1539301, 0, 0
PIDY, 1004451393, 0, 0, 0, 0, 0, 0
PIDS, 1004451397, 0, 0, 0, 0, 0, 0
EKF1, 1004451411, 0.54, -3.08, 0.00, 0, 0, 0, 0, 0, 0, 0.00, 0.00, 0.00
EKF2, 1004451418, 0, 0, 0, 0.00, 0.00, 0, 0, 0, 0, 0, 0
EKF3, 1004451423, 0.00, 0.00, 0.00, 0.00, 0.00, 0.00, 0, 0, 0, 0.00
EKF4, 1004451436, 0.00, 0.00, 0.00, 0.00, 0.00, 0.00, 0.00, 0, 0, 128, 0, 8192
IMU, 1004451447, -0.0298302, 0.006151374, 0.002230004, 0.4517598, 0.1957852, -9.857504, 0, 0, 43.24377, 1, 1
IMU2, 1004451447, -0.01120945, -0.04749992, 0.05851617, 0.3882796, 0.09821612, -9.908771, 0, 0, 44, 1, 1
GPS, 1004530894, 1, 0, 0, 0, 99.99, 40.4703212, -3.8091502, -0.50, 501.68, 0.00, 0.00, 0, 1
GPA, 1004530899, 99.99, 114.16, 564.48, 277.00
MAG, 1004531159, 227, -79, 255, -183, 25, 200, 0, 0, 0, 1
MAG2, 1004531163, 126, -115, 355, 40, 539, -758, 0, 0, 0, 1
ATT, 1004551392, 0.00, -1.05, 0.00, -0.47, 0.00, 16.99, 0.09, 0.00
PIDR, 1004551397, 2.625, 2.415141, 0, 1.249301, 0, 0
PIDP, 1004551401, 1.200235, 0.7431456, 0, 0.1715591, 0, 0
PIDY, 1004551406, 0, 0, 0, 0, 0, 0
PIDS, 1004551410, 0, 0, 0, 0, 0, 0
EKF1, 1004551423, 0.54, -3.08, 0.00, 0, 0, 0, 0, 0, 0, 0.00, 0.00, 0.00
EKF2, 1004551430, 0, 0, 0, 0.00, 0.00, 0, 0, 0, 0, 0, 0
EKF3, 1004551435, 0.00, 0.00, 0.00, 0.00, 0.00, 0.00, 0, 0, 0, 0.00
EKF4, 1004551448, 0.00, 0.00, 0.00, 0.00, 0.00, 0.00, 0.00, 0, 0, 128, 0, 8192
IMU, 1004551459, 0.01048228, 0.006544546, 0.002124362, 0.4772418, 0.2307298, -9.878017, 0, 0, 43.19945, 1, 1
IMU2, 1004551459, 0.02738208, -0.04364065, 0.06180285, 0.4941068, 0.1206552, -9.943384, 0, 0, 43.875, 1, 1
MAG, 1004631147, 222, -79, 258, -183, 25, 200, 0, 0, 0, 1
MAG2, 1004631151, 126, -115, 354, 40, 539, -758, 0, 0, 0, 1
STAT, 1004631236, 0, 0, 1, 2, 0, 1
STAT, 1004631275, 0, 0, 1, 2, 0, 1
ATT, 1004651423, 0.00, -1.08, 0.00, -0.59, 0.00, 16.97, 0.10, 0.01
PIDR, 1004651428, 2.7, 2.484145, 0, 1.572894, 0, 0
PIDP, 1004651433, 1.50191, 0.9299326, 0, 0.2480801, 0, 0
PIDY, 1004651437, 0, 0, 0, 0, 0, 0
PIDS, 1004651441, 0, 0, 0, 0, 0, 0
EKF1, 1004651454, 0.54, -3.08, 0.00, 0, 0, 0, 0, 0, 0, 0.00, 0.00, 0.00
EKF2, 1004651461, 0, 0, 0, 0.00, 0.00, 0, 0, 0, 0, 0, 0
EKF3, 1004651466, 0.00, 0.00, 0.00, 0.00, 0.00, 0.00, 0, 0, 0, 0.00
EKF4, 1004651479, 0.00, 0.00, 0.00, 0.00, 0.00, 0.00, 0.00, 0, 0, 128, 0, 8192
IMU, 1004651490, 0.002863823, 0.004181617, 0.002369002, 0.4807941, 0.2724434, -9.850305, 0, 0, 43.19945, 1, 1
IMU2, 1004651490, 0.0163871, -0.04923464, 0.06051122, 0.4630446, 0.2723538, -9.862785, 0, 0, 44, 1, 1
GPS, 1004731095, 1, 0, 0, 0, 99.99, 40.4703212, -3.8091502, -0.59, 501.68, 0.00, 0.00, 0, 1
GPA, 1004731146, 99.99, 135.12, 579.32, 277.04
MAG, 1004731252, 226, -78, 257, -183, 25, 200, 0, 0, 0, 1
MAG2, 1004731256, 128, -117, 356, 40, 539, -758, 0, 0, 0, 1
ATT, 1004751623, 0.00, -1.11, 0.00, -0.77, 0.00, 16.96, 0.10, 0.01
PIDR, 1004751628, 2.775, 2.55315, 0, 1.990733, 0, 0
PIDP, 1004751632, 1.953359, 1.209455, 0, 0.3552824, 0, 0
PIDY, 1004751636, 0, 0, 0, 0, 0, 0
PIDS, 1004751641, 0, 0, 0, 0, 0, 0
EKF1, 1004751654, 0.54, -3.08, 0.00, 0, 0, 0, 0, 0, 0, 0.00, 0.00, 0.00
EKF2, 1004751661, 0, 0, 0, 0.00, 0.00, 0, 0, 0, 0, 0, 0
EKF3, 1004751698, 0.00, 0.00, 0.00, 0.00, 0.00, 0.00, 0, 0, 0, 0.00
EKF4, 1004751712, 0.00, 0.00, 0.00, 0.00, 0.00, 0.00, 0.00, 0, 0, 128, 0, 8192
IMU, 1004751723, -0.01256361, 0.0009718452, 0.001815091, 0.4607789, 0.2673853, -9.851778, 0, 0, 43.24377, 1, 1
IMU2, 1004751723, 0.005102549, -0.05136873, 0.05932619, 0.4376118, 0.238953, -9.805617, 0, 0, 44, 1, 1
MAG, 1004831059, 222, -78, 256, -183, 25, 200, 0, 0, 0, 1
MAG2, 1004831064, 128, -118, 356, 40, 539, -758, 0, 0, 0, 1
STAT, 1004831185, 0, 0, 1, 2, 0, 1
ATT, 1004851234, 0.00, -1.14, 0.00, -0.88, 0.00, 16.95, 0.08, 0.01
PIDR, 1004851239, 2.85, 2.622154, 0, 1.515918, 0, 0
PIDP, 1004851243, 2.229906, 1.380683, 0, 0.3608047, 0, 0
PIDY, 1004851248, 0, 0, 0, 0, 0, 0
PIDS, 1004851252, 0, 0, 0, 0, 0, 0
EKF1, 1004851265, 0.54, -3.08, 0.00, 0, 0, 0, 0, 0, 0, 0.00, 0.00, 0.00
EKF2, 1004851302, 0, 0, 0, 0.00, 0.00, 0, 0, 0, 0, 0, 0
EKF3, 1004851307, 0.00, 0.00, 0.00, 0.00, 0.00, 0.00, 0, 0, 0, 0.00
EKF4, 1004851320, 0.00, 0.00, 0.00, 0.00, 0.00, 0.00, 0.00, 0, 0, 128, 0, 8192
IMU, 1004851331, 0.005750755, 0.004548286, 0.002577805, 0.4631627, 0.2702278, -9.845953, 0, 0, 43.19945, 1, 1
IMU2, 1004851331, 0.01973274, -0.0464677, 0.06178225, 0.492303, 0.1991473, -9.963991, 0, 0, 44, 1, 1
GPS, 1004931209, 1, 0, 0, 0, 99.99, 40.4703212, -3.8091502, -0.54, 501.68, 0.00, 0.00, 0, 1
GPA, 1004931213, 99.99, 156.08, 594.12, 277.07
MAG, 1004931309, 221, -82, 255, -183, 25, 200, 0, 0, 0, 1
MAG2, 1004931313, 129, -118, 356, 40, 539, -758, 0, 0, 0, 1
ATT, 1004951258, 0.00, -1.15, 0.00, -0.90, 0.00, 16.93, 0.08, 0.01
PIDR, 1004951263, 2.875, 2.645155, 0, 1.422207, 0, 0
PIDP, 1004951267, 2.280296, 1.411883, 0, 0.3870676, 0, 0
PIDY, 1004951271, 0, 0, 0, 0, 0, 0
PIDS, 1004951276, 0, 0, 0, 0, 0, 0
EKF1, 1004951289, 0.54, -3.08, 0.00, 0, 0, 0, 0, 0, 0, 0.00, 0.00, 0.00
EKF2, 1004951296, 0, 0, 0, 0.00, 0.00, 0, 0, 0, 0, 0, 0
EKF3, 1004951301, 0.00, 0.00, 0.00, 0.00, 0.00, 0.00, 0, 0, 0, 0.00
EKF4, 1004951314, 0.00, 0.00, 0.00, 0.00, 0.00, 0.00, 0.00, 0, 0, 128, 0, 8192
IMU, 1004951325, 0.007483133, 0.003962426, 0.00220784, 0.4488579, 0.270626, -9.846992, 0, 0, 43.28809, 1, 1
IMU2, 1004951325, 0.02777123, -0.05281765, 0.05776167, 0.4922696, 0.2234415, -9.828036, 0, 0, 43.875, 1, 1
MAG, 1005031104, 227, -78, 257, -183, 25, 200, 0, 0, 0, 1
MAG2, 1005031109, 129, -119, 355, 40, 539, -758, 0, 0, 0, 1
STAT, 1005031192, 0, 0, 1, 2, 0, 1
ATT, 1005051420, 0.00, -1.14, 0.00, -0.88, 0.00, 16.93, 0.10, 0.00
PIDR, 1005051426, 2.85, 2.622154, 0, 1.365599, 0, 0
PIDP, 1005051430, 2.229962, 1.380718, 0, 0.3725948, 0, 0
PIDY, 1005051434, 0, 0, 0, 0, 0, 0
PIDS, 1005051438, 0, 0, 0, 0, 0, 0
EKF1, 1005051452, 0.54, -3.08, 0.00, 0, 0, 0, 0, 0, 0, 0.00, 0.00, 0.00
EKF2, 1005051458, 0, 0, 0, 0.00, 0.00, 0, 0, 0, 0, 0, 0
EKF3, 1005051466, 0.00, 0.00, 0.00, 0.00, 0.00, 0.00, 0, 0, 0, 0.00
EKF4, 1005051510, 0.00, 0.00, 0.00, 0.00, 0.00, 0.00, 0.00, 0, 0, 128, 0, 8192
IMU, 1005051521, 0.008123063, 0.005017415, 0.002617001, 0.4647022, 0.3090664, -9.850218, 0, 0, 43.28809, 1, 1
IMU2, 1005051521, 0.02859118, -0.05031935, 0.06623482, 0.4809337, 0.2570621, -9.897529, 0, 0, 44, 1, 1
GPS, 1005131323, 1, 0, 0, 0, 99.99, 40.4703212, -3.8091502, -0.54, 501.68, 0.00, 0.00, 0, 1
GPA, 1005131327, 99.99, 176.96, 608.96, 277.10
MAG, 1005131388, 227, -77, 257, -183, 25, 200, 0, 0, 0, 1
MAG2, 1005131393, 130, -119, 356, 40, 539, -758, 0, 0, 0, 1
ATT, 1005151297, 0.00, -1.15, 0.00, -0.69, 0.00, 16.91, 0.10, 0.01
PIDR, 1005151302, 2.875, 2.645155, 0, 1.62661, 0, 0
PIDP, 1005151307, 1.75542, 1.086897, 0, 0.2673293, 0, 0
PIDY, 1005151311, 0, 0, 0, 0, 0, 0
PIDS, 1005151315, 0, 0, 0, 0, 0, 0
EKF1, 1005151328, 0.54, -3.08, 0.00, 0, 0, 0, 0, 0, 0, 0.00, 0.00, 0.00
EKF2, 1005151335, 0, 0, 0, 0.00, 0.00, 0, 0, 0, 0, 0, 0
EKF3, 1005151340, 0.00, 0.00, 0.00, 0.00, 0.00, 0.00, 0, 0, 0, 0.00
EKF4, 1005151353, 0.00, 0.00, 0.00, 0.00, 0.00, 0.00, 0.00, 0, 0, 128, 0, 8192
IMU, 1005151364, 0.001702778, 0.004581171, 0.003081305, 0.4599451, 0.322032, -9.858199, 0, 0, 43.33241, 1, 1
IMU2, 1005151364, 0.01731526, -0.04545245, 0.06283511, 0.565972, 0.1557221, -9.917605, 0, 0, 44, 1, 1
MAG, 1005231235, 229, -81, 255, -183, 25, 200, 0, 0, 0, 1
MAG2, 1005231239, 127, -118, 354, 40, 539, -758, 0, 0, 0, 1
STAT, 1005231683, 0, 0, 1, 2, 0, 1
ATT, 1005251293, 0.00, -1.05, 0.00, -0.55, 0.00, 16.88, 0.10, 0.01
PIDR, 1005251298, 2.625, 2.415141, 0, 0.7504015, 0, 0
PIDP, 1005251345, 1.400221, 0.8669701, 0, 0.2131802, 0, 0
PIDY, 1005251350, 0, 0, 0, 0, 0, 0
PIDS, 1005251354, 0, 0, 0, 0, 0, 0
EKF1, 1005251368, 0.54, -3.08, 0.00, 0, 0, 0, 0, 0, 0, 0.00, 0.00, 0.00
EKF2, 1005251374, 0, 0, 0, 0.00, 0.00, 0, 0, 0, 0, 0, 0
EKF3, 1005251384, 0.00, 0.00, 0.00, 0.00, 0.00, 0.00, 0, 0, 0, 0.00
EKF4, 1005251398, 0.00, 0.00, 0.00, 0.00, 0.00, 0.00, 0.00, 0, 0, 128, 0, 8192
IMU, 1005251409, 0.02801317, 0.005408553, 0.00231553, 0.4830175, 0.240563, -9.793086, 0, 0, 43.24377, 1, 1
IMU2, 1005251409, 0.04705545, -0.04848285, 0.06097002, 0.5119304, 0.1969515, -9.77052, 0, 0, 44, 1, 1
GPS, 1005331553, 1, 0, 0, 0, 99.99, 40.4703212, -3.8091502, -0.50, 501.68, 0.00, 0.00, 0, 1
GPA, 1005331558, 99.99, 197.92, 623.76, 277.13
MAG, 1005331619, 221, -79, 254, -183, 25, 200, 0, 0, 0, 1
MAG2, 1005331624, 126, -117, 353, 40, 539, -758, 0, 0, 0, 1
ATT, 1005351283, 0.00, -1.03, 0.00, -0.67, 0.00, 16.87, 0.10, 0.01
PIDR, 1005351288, 2.575, 2.369139, 0, 0.8207902, 0, 0
PIDP, 1005351292, 1.699528, 1.052291, 0, 0.2686301, 0, 0
PIDY, 1005351296, 0, 0, 0, 0, 0, 0
PIDS, 1005351300, 0, 0, 0, 0, 0, 0
EKF1, 1005351314, 0.54, -3.08, 0.00, 0, 0, 0, 0, 0, 0, 0.00, 0.00, 0.00
EKF2, 1005351321, 0, 0, 0, 0.00, 0.00, 0, 0, 0, 0, 0, 0
EKF3, 1005351326, 0.00, 0.00, 0.00, 0.00, 0.00, 0.00, 0, 0, 0, 0.00
EKF4, 1005351339, 0.00, 0.00, 0.00, 0.00, 0.00, 0.00, 0.00, 0, 0, 128, 0, 8192
IMU, 1005351428, 0.02378085, 0.006222082, 0.003437957, 0.4761016, 0.2928749, -9.819235, 0, 0, 43.24377, 1, 1
IMU2, 1005351428, 0.03888507, -0.04836369, 0.06402494, 0.3776176, 0.2112037, -9.809629, 0, 0, 43.875, 1, 1
MAG, 1005431430, 223, -80, 255, -183, 25, 200, 0, 0, 0, 1
MAG2, 1005431435, 127, -116, 352, 40, 539, -758, 0, 0, 0, 1
STAT, 1005431521, 0, 0, 1, 2, 0, 1
ATT, 1005451324, 0.00, -1.02, 0.00, -0.74, 0.00, 16.87, 0.11, 0.00
PIDR, 1005451329, 2.55, 2.346137, 0, 1.402939, 0, 0
PIDP, 1005451338, 1.873837, 1.160217, 0, 0.3341313, 0, 0
PIDY, 1005451343, 0, 0, 0, 0, 0, 0
PIDS, 1005451347, 0, 0, 0, 0, 0, 0
EKF1, 1005451360, 0.54, -3.08, 0.00, 0, 0, 0, 0, 0, 0, 0.00, 0.00, 0.00
EKF2, 1005451367, 0, 0, 0, 0.00, 0.00, 0, 0, 0, 0, 0, 0
EKF3, 1005451377, 0.00, 0.00, 0.00, 0.00, 0.00, 0.00, 0, 0, 0, 0.00
EKF4, 1005451390, 0.00, 0.00, 0.00, 0.00, 0.00, 0.00, 0.00, 0, 0, 128, 0, 8192
IMU, 1005451401, 0.004910972, 0.002590557, 0.0004159281, 0.4503058, 0.2849871, -9.804068, 0, 0, 43.37673, 1, 1
IMU2, 1005451401, 0.01995936, -0.05290478, 0.05898952, 0.5069774, 0.2213865, -9.878845, 0, 0, 43.875, 1, 1
GPS, 1005531369, 1, 0, 0, 0, 99.99, 40.4703212, -3.8091502, -0.50, 501.68, 0.00, 0.00, 0, 1
GPA, 1005531373, 99.99, 218.88, 638.64, 277.16
MAG, 1005531424, 226, -78, 257, -183, 25, 200, 0, 0, 0, 1
MAG2, 1005531428, 126, -117, 352, 40, 539, -758, 0, 0, 0, 1
ATT, 1005551427, 0.00, -1.03, 0.00, -0.53, 0.00, 16.86, 0.11, 0.00
PIDR, 1005551433, 2.575, 2.369139, 0, 1.424494, 0, 0
PIDP, 1005551437, 1.349655, 0.8356615, 0, 0.2104346, 0, 0
PIDY, 1005551441, 0, 0, 0, 0, 0, 0
PIDS, 1005551445, 0, 0, 0, 0, 0, 0
EKF1, 1005551459, 0.54, -3.08, 0.00, 0, 0, 0, 0, 0, 0, 0.00, 0.00, 0.00
EKF2, 1005551465, 0, 0, 0, 0.00, 0.00, 0, 0, 0, 0, 0, 0
EKF3, 1005551470, 0.00, 0.00, 0.00, 0.00, 0.00, 0.00, 0, 0, 0, 0.00
EKF4, 1005551483, 0.00, 0.00, 0.00, 0.00, 0.00, 0.00, 0.00, 0, 0, 128, 0, 8192
IMU, 1005551494, 0.005020889, 0.004766725, 0.00357463, 0.4405097, 0.2782943, -9.871485, 0, 0, 43.24377, 1, 1
IMU2, 1005551494, 0.01908755, -0.04641012, 0.0634008, 0.4299685, 0.1956484, -9.912839, 0, 0, 44, 1, 1
MAG, 1005631153, 226, -80, 256, -183, 25, 200, 0, 0, 0, 1
MAG2, 1005631157, 126, -116, 353, 40, 539, -758, 0, 0, 0, 1
STAT, 1005631289, 0, 0, 1, 2, 0, 1
STAT, 1005631328, 0, 0, 1, 2, 0, 1
ATT, 1005660945, 0.00, -1.06, 0.00, -0.32, 0.00, 16.84, 0.10, 0.01
PIDR, 1005660950, 2.65, 2.438143, 0, 1.236919, 0, 0
PIDP, 1005660954, 0.8259115, 0.5113768, 0, 0.08569998, 0, 0
PIDY, 1005660958, 0, 0, 0, 0, 0, 0
PIDS, 1005660962, 0, 0, 0, 0, 0, 0
EKF1, 1005660976, 0.54, -3.08, 0.00, 0, 0, 0, 0, 0, 0, 0.00, 0.00, 0.00
EKF2, 1005660982, 0, 0, 0, 0.00, 0.00, 0, 0, 0, 0, 0, 0
EKF3, 1005660987, 0.00, 0.00, 0.00, 0.00, 0.00, 0.00, 0, 0, 0, 0.00
EKF4, 1005661001, 0.00, 0.00, 0.00, 0.00, 0.00, 0.00, 0.00, 0, 0, 128, 0, 8192
IMU, 1005661011, 0.01132721, 0.006158378, 0.001288135, 0.4396856, 0.2934178, -9.926237, 0, 0, 43.33241, 1, 1
IMU2, 1005661011, 0.02868664, -0.04120866, 0.06253574, 0.4339712, 0.2219612, -10.01053, 0, 0, 44, 1, 1
GPS, 1005731376, 1, 0, 0, 0, 99.99, 40.4703212, -3.8091502, -0.50, 501.68, 0.00, 0.00, 0, 1
GPA, 1005731381, 99.99, 239.92, 653.48, 277.19
MAG, 1005731462, 223, -82, 257, -183, 25, 200, 0, 0, 0, 1
MAG2, 1005731466, 127, -117, 355, 40, 539, -758, 0, 0, 0, 1
ATT, 1005751444, 0.00, -1.07, 0.00, -0.37, 0.00, 16.83, 0.10, 0.00
PIDR, 1005751490, 2.675, 2.461144, 0, 1.671337, 0, 0
PIDP, 1005751495, 0.9513207, 0.589026, 0, 0.1402773, 0, 0
PIDY, 1005751499, 0, 0, 0, 0, 0, 0
PIDS, 1005751503, 0, 0, 0, 0, 0, 0
EKF1, 1005751517, 0.54, -3.08, 0.00, 0, 0, 0, 0, 0, 0, 0.00, 0.00, 0.00
EKF2, 1005751524, 0, 0, 0, 0.00, 0.00, 0, 0, 0, 0, 0, 0
EKF3, 1005751528, 0.00, 0.00, 0.00, 0.00, 0.00, 0.00, 0, 0, 0, 0.00
EKF4, 1005751542, 0.00, 0.00, 0.00, 0.00, 0.00, 0.00, 0.00, 0, 0, 128, 0, 8192
IMU, 1005751553, -0.004880894, 0.003511875, 0.003023927, 0.4453119, 0.2924482, -9.809162, 0, 0, 43.19945, 1, 1
IMU2, 1005751553, 0.01372651, -0.04802208, 0.06150562, 0.4916803, 0.2080635, -9.931049, 0, 0, 43.875, 1, 1
MAG, 1005831131, 226, -78, 256, -183, 25, 200, 0, 0, 0, 1
MAG2, 1005831136, 128, -117, 355, 40, 539, -758, 0, 0, 0, 1
STAT, 1005831259, 0, 0, 1, 2, 0, 1
ATT, 1005851254, 0.00, -1.05, 0.00, -0.43, 0.00, 16.82, 0.10, 0.00
PIDR, 1005851260, 2.625, 2.415141, 0, 1.418382, 0, 0
PIDP, 1005851264, 1.100199, 0.6812065, 0, 0.1621877, 0, 0
PIDY, 1005851268, 0, 0, 0, 0, 0, 0
PIDS, 1005851272, 0, 0, 0, 0, 0, 0
EKF1, 1005851286, 0.54, -3.08, 0.00, 0, 0, 0, 0, 0, 0, 0.00, 0.00, 0.00
EKF2, 1005851292, 0, 0, 0, 0.00, 0.00, 0, 0, 0, 0, 0, 0
EKF3, 1005851297, 0.00, 0.00, 0.00, 0.00, 0.00, 0.00, 0, 0, 0, 0.00
EKF4, 1005851311, 0.00, 0.00, 0.00, 0.00, 0.00, 0.00, 0.00, 0, 0, 128, 0, 8192
IMU, 1005851322, 0.00570622, 0.005739818, 0.00175443, 0.4487745, 0.2541779, -9.842168, 0, 0, 43.33241, 1, 1
IMU2, 1005851322, 0.02169495, -0.05125613, 0.06021463, 0.4974808, 0.1802555, -9.776676, 0, 0, 43.875, 1, 1
GPS, 1005931380, 1, 0, 0, 0, 99.99, 40.4703212, -3.8091502, -0.50, 501.68, 0.00, 0.00, 0, 1
GPA, 1005931385, 99.99, 260.96, 12.96, 277.21
MAG, 1005931446, 225, -79, 255, -183, 25, 200, 0, 0, 0, 1
MAG2, 1005931450, 129, -116, 356, 40, 539, -758, 0, 0, 0, 1
ATT, 1005951555, 0.00, -1.03, 0.00, -0.51, 0.00, 16.80, 0.09, 0.01
PIDR, 1005951560, 2.575, 2.369139, 0, 1.280082, 0, 0
PIDP, 1005951564, 1.299569, 0.8046495, 0, 0.20449, 0, 0
PIDY, 1005951568, 0, 0, 0, 0, 0, 0
PIDS, 1005951572, 0, 0, 0, 0, 0, 0
EKF1, 1005951586, 0.54, -3.08, 0.00, 0, 0, 0, 0, 0, 0, 0.00, 0.00, 0.00
EKF2, 1005951593, 0, 0, 0, 0.00, 0.00, 0, 0, 0, 0, 0, 0
EKF3, 1005951632, 0.00, 0.00, 0.00, 0.00, 0.00, 0.00, 0, 0, 0, 0.00
EKF4, 1005951645, 0.00, 0.00, 0.00, 0.00, 0.00, 0.00, 0.00, 0, 0, 128, 0, 8192
IMU, 1005951693, 0.007712034, 0.004343888, 0.002643328, 0.434391, 0.2729489, -9.826027, 0, 0, 43.19945, 1, 1
IMU2, 1005951693, 0.02675181, -0.04685124, 0.06247015, 0.4939962, 0.2069972, -9.994439, 0, 0, 44, 1, 1
MAG, 1006031182, 225, -78, 255, -183, 25, 200, 0, 0, 0, 1
MAG2, 1006031186, 128, -118, 356, 40, 539, -758, 0, 0, 0, 1
STAT, 1006031328, 0, 0, 1, 2, 0, 1
ATT, 1006051535, 0.00, -1.02, 0.00, -0.61, 0.00, 16.79, 0.09, 0.01
PIDR, 1006051540, 2.55, 2.346137, 0, 1.234082, 0, 0
PIDP, 1006051544, 1.54902, 0.9591016, 0, 0.2985135, 0, 0
PIDY, 1006051548, 0, 0, 0, 0, 0, 0
PIDS, 1006051552, 0, 0, 0, 0, 0, 0
EKF1, 1006051566, 0.54, -3.08, 0.00, 0, 0, 0, 0, 0, 0, 0.00, 0.00, 0.00
EKF2, 1006051573, 0, 0, 0, 0.00, 0.00, 0, 0, 0, 0, 0, 0
EKF3, 1006051578, 0.00, 0.00, 0.00, 0.00, 0.00, 0.00, 0, 0, 0, 0.00
EKF4, 1006051591, 0.00, 0.00, 0.00, 0.00, 0.00, 0.00, 0.00, 0, 0, 128, 0, 8192
IMU, 1006051602, 0.007683692, 0.002977409, 0.002759196, 0.4699563, 0.2522901, -9.826599, 0, 0, 43.28809, 1, 1
IMU2, 1006051602, 0.02793608, -0.05559193, 0.06040749, 0.5663455, 0.2000189, -9.817155, 0, 0, 43.875, 1, 1
GPS, 1006131458, 1, 0, 0, 0, 99.99, 40.4703212, -3.8091502, -0.61, 501.68, 0.00, 0.00, 0, 1
GPA, 1006131463, 99.99, 282.00, 27.80, 277.24
MAG, 1006131524, 225, -78, 254, -183, 25, 200, 0, 0, 0, 1
MAG2, 1006131528, 129, -118, 356, 40, 539, -758, 0, 0, 0, 1
ATT, 1006151396, 0.00, -1.02, 0.00, -0.43, 0.00, 16.77, 0.12, 0.01
PIDR, 1006151401, 2.55, 2.346137, 0, 1.19143, 0, 0
PIDP, 1006151406, 1.099015, 0.6804733, 0, 0.1697886, 0, 0
PIDY, 1006151410, 0, 0, 0, 0, 0, 0
PIDS, 1006151414, 0, 0, 0, 0, 0, 0
EKF1, 1006151430, 0.54, -3.08, 0.00, 0, 0, 0, 0, 0, 0, 0.00, 0.00, 0.00
EKF2, 1006151437, 0, 0, 0, 0.00, 0.00, 0, 0, 0, 0, 0, 0
EKF3, 1006151442, 0.00, 0.00, 0.00, 0.00, 0.00, 0.00, 0, 0, 0, 0.00
EKF4, 1006151455, 0.00, 0.00, 0.00, 0.00, 0.00, 0.00, 0.00, 0, 0, 128, 0, 8192
IMU, 1006151466, 0.009810138, 0.005175683, 0.002491742, 0.4587996, 0.2674052, -9.795614, 0, 0, 43.28809, 1, 1
IMU2, 1006151466, 0.02887939, -0.04816801, 0.0592485, 0.4488097, 0.2204245, -9.866735, 0, 0, 43.875, 1, 1
UBX1, 1006191264, 0, 112, 6, 1, 1387
UBX2, 1006191297, 0, -31, 103, 7, 111
MAG, 1006231273, 224, -78, 257, -183, 25, 200, 0, 0, 0, 1
MAG2, 1006231278, 127, -116, 354, 40, 539, -758, 0, 0, 0, 1
STAT, 1006231364, 0, 0, 1, 2, 0, 1
ATT, 1006251344, 0.00, -1.03, 0.00, -0.18, 0.00, 16.75, 0.12, 0.01
PIDR, 1006251349, 2.575, 2.369139, 0, 1.405181, 0, 0
PIDP, 1006251353, 0.4744282, 0.2937501, 0, 0.09252839, 0, 0
PIDY, 1006251357, 0, 0, 0, 0, 0, 0
PIDS, 1006251361, 0, 0, 0, 0, 0, 0
EKF1, 1006251375, 0.54, -3.08, 0.00, 0, 0, 0, 0, 0, 0, 0.00, 0.00, 0.00
EKF2, 1006251382, 0, 0, 0, 0.00, 0.00, 0, 0, 0, 0, 0, 0
EKF3, 1006251387, 0.00, 0.00, 0.00, 0.00, 0.00, 0.00, 0, 0, 0, 0.00
EKF4, 1006251400, 0.00, 0.00, 0.00, 0.00, 0.00, 0.00, 0.00, 0, 0, 128, 0, 8192
IMU, 1006251411, 0.00398679, 0.004693974, 0.002358219, 0.4609321, 0.2841586, -9.822299, 0, 0, 43.28809, 1, 1
IMU2, 1006251411, 0.02081373, -0.04838649, 0.06151014, 0.5237324, 0.2283776, -9.923305, 0, 0, 44, 1, 1
GPS, 1006331556, 1, 0, 0, 0, 99.99, 40.4703212, -3.8091502, -0.49, 501.68, 0.00, 0.00, 0, 1
GPA, 1006331561, 99.99, 302.96, 42.68, 277.26
MAG, 1006331622, 221, -80, 255, -183, 25, 200, 0, 0, 0, 1
MAG2, 1006331626, 127, -118, 354, 40, 539, -758, 0, 0, 0, 1
ATT, 1006351325, 0.00, -1.04, 0.00, -0.09, 0.00, 16.73, 0.09, 0.01
PIDR, 1006351330, 2.6, 2.39214, 0, 1.513507, 0, 0
PIDP, 1006351334, 0.2498631, 0.1547069, 0, 0.0658609, 0, 0
PIDY, 1006351372, 0, 0, 0, 0, 0, 0
PIDS, 1006351377, 0, 0, 0, 0, 0, 0
EKF1, 1006351391, 0.54, -3.08, 0.00, 0, 0, 0, 0, 0, 0, 0.00, 0.00, 0.00
EKF2, 1006351397, 0, 0, 0, 0.00, 0.00, 0, 0, 0, 0, 0, 0
EKF3, 1006351402, 0.00, 0.00, 0.00, 0.00, 0.00, 0.00, 0, 0, 0, 0.00
EKF4, 1006351444, 0.00, 0.00, 0.00, 0.00, 0.00, 0.00, 0.00, 0, 0, 128, 0, 8192
IMU, 1006351455, 0.002511505, 0.003140779, 0.001001637, 0.4436299, 0.2493297, -9.825743, 0, 0, 43.24377, 1, 1
IMU2, 1006351455, 0.0165729, -0.04887978, 0.0571372, 0.5187167, 0.2470057, -9.842705, 0, 0, 44, 1, 1
MAG, 1006431193, 225, -80, 255, -183, 25, 200, 0, 0, 0, 1
MAG2, 1006431198, 126, -117, 354, 40, 539, -758, 0, 0, 0, 1
STAT, 1006431621, 0, 0, 1, 2, 0, 1
ATT, 1006451505, 0.00, -1.06, 0.00, -0.09, 0.00, 16.72, 0.09, 0.00
PIDR, 1006451510, 2.65, 2.438143, 0, 1.484618, 0, 0
PIDP, 1006451514, 0.2508729, 0.1553321, 0, 0.03596893, 0, 0
PIDY, 1006451518, 0, 0, 0, 0, 0, 0
PIDS, 1006451522, 0, 0, 0, 0, 0, 0
EKF1, 1006451536, 0.54, -3.08, 0.00, 0, 0, 0, 0, 0, 0, 0.00, 0.00, 0.00
EKF2, 1006451543, 0, 0, 0, 0.00, 0.00, 0, 0, 0, 0, 0, 0
EKF3, 1006451548, 0.00, 0.00, 0.00, 0.00, 0.00, 0.00, 0, 0, 0, 0.00
EKF4, 1006451561, 0.00, 0.00, 0.00, 0.00, 0.00, 0.00, 0.00, 0, 0, 128, 0, 8192
IMU, 1006451572, 0.004818732, 0.003052984, 0.002443865, 0.4572568, 0.2623487, -9.852546, 0, 0, 43.24377, 1, 1
IMU2, 1006451572, 0.01978177, -0.04702771, 0.06005647, 0.4570619, 0.2603755, -9.896219, 0, 0, 44.125, 1, 1
GPS, 1006531591, 1, 0, 0, 0, 99.99, 40.4703212, -3.8091502, -0.50, 501.68, 0.00, 0.00, 0, 1
GPA, 1006531596, 99.99, 323.92, 57.56, 277.29
MAG, 1006531692, 225, -83, 256, -183, 25, 200, 0, 0, 0, 1
MAG2, 1006531696, 127, -116, 354, 40, 539, -758, 0, 0, 0, 1
ATT, 1006551227, 0.00, -1.08, 0.00, -0.08, 0.00, 16.70, 0.08, 0.00
PIDR, 1006551232, 2.7, 2.484145, 0, 1.509016, 0, 0
PIDP, 1006551237, 0.2267621, 0.1404036, 0, 0.06047026, 0, 0
PIDY, 1006551241, 0, 0, 0, 0, 0, 0
PIDS, 1006551245, 0, 0, 0, 0, 0, 0
EKF1, 1006551258, 0.54, -3.08, 0.00, 0, 0, 0, 0, 0, 0, 0.00, 0.00, 0.00
EKF2, 1006551265, 0, 0, 0, 0.00, 0.00, 0, 0, 0, 0, 0, 0
EKF3, 1006551270, 0.00, 0.00, 0.00, 0.00, 0.00, 0.00, 0, 0, 0, 0.00
EKF4, 1006551283, 0.00, 0.00, 0.00, 0.00, 0.00, 0.00, 0.00, 0, 0, 128, 0, 8192
IMU, 1006551294, 0.006898272, 0.003299735, 0.002387551, 0.4541557, 0.2732553, -9.855135, 0, 0, 43.19945, 1, 1
IMU2, 1006551294, 0.01796415, -0.05264233, 0.06099897, 0.5167351, 0.3116918, -9.804359, 0, 0, 43.875, 1, 1
MAG, 1006631138, 223, -80, 256, -183, 25, 200, 0, 0, 0, 1
MAG2, 1006631142, 126, -116, 353, 40, 539, -758, 0, 0, 0, 1
STAT, 1006631231, 0, 0, 1, 2, 0, 1
STAT, 1006631273, 0, 0, 1, 2, 0, 1
ATT, 1006651317, 0.00, -1.09, 0.00, -0.04, 0.00, 16.70, 0.08, 0.00
PIDR, 1006651322, 2.725, 2.507147, 0, 1.396183, 0, 0
PIDP, 1006651327, 0.1275792, 0.07899279, 0, 0.01678946, 0, 0
PIDY, 1006651331, 0, 0, 0, 0, 0, 0
PIDS, 1006651335, 0, 0, 0, 0, 0, 0
EKF1, 1006651348, 0.54, -3.08, 0.00, 0, 0, 0, 0, 0, 0, 0.00, 0.00, 0.00
EKF2, 1006651355, 0, 0, 0, 0.00, 0.00, 0, 0, 0, 0, 0, 0
EKF3, 1006651360, 0.00, 0.00, 0.00, 0.00, 0.00, 0.00, 0, 0, 0, 0.00
EKF4, 1006651373, 0.00, 0.00, 0.00, 0.00, 0.00, 0.00, 0.00, 0, 0, 128, 0, 8192
IMU, 1006651384, 0.007946475, 0.005965171, 0.00147857, 0.4685054, 0.2994346, -9.84671, 0, 0, 43.24377, 1, 1
IMU2, 1006651384, 0.02346473, -0.0485296, 0.05792504, 0.6221627, 0.2104108, -9.841926, 0, 0, 44, 1, 1
GPS, 1006731363, 1, 0, 0, 0, 99.99, 40.4703212, -3.8091502, -0.57, 501.68, 0.00, 0.00, 0, 1
GPA, 1006731368, 99.99, 344.96, 72.40, 277.32
MAG, 1006731436, 224, -79, 257, -183, 25, 200, 0, 0, 0, 1
MAG2, 1006731440, 128, -118, 355, 40, 539, -758, 0, 0, 0, 1
ATT, 1006751421, 0.00, -1.11, 0.00, 0.00, 0.00, 16.69, 0.08, 0.00
PIDR, 1006751426, 2.775, 2.55315, 0, 1.51801, 0, 0
PIDP, 1006751430, 0.02842762, 0.01760143, 0, 0.03856751, 0, 0
PIDY, 1006751434, 0, 0, 0, 0, 0, 0
PIDS, 1006751438, 0, 0, 0, 0, 0, 0
EKF1, 1006751452, 0.54, -3.08, 0.00, 0, 0, 0, 0, 0, 0, 0.00, 0.00, 0.00
EKF2, 1006751458, 0, 0, 0, 0.00, 0.00, 0, 0, 0, 0, 0, 0
EKF3, 1006751463, 0.00, 0.00, 0.00, 0.00, 0.00, 0.00, 0, 0, 0, 0.00
EKF4, 1006751476, 0.00, 0.00, 0.00, 0.00, 0.00, 0.00, 0.00, 0, 0, 128, 0, 8192
IMU, 1006751487, 0.001111211, 0.003321335, 0.00270017, 0.4586099, 0.2945291, -9.834892, 0, 0, 43.24377, 1, 1
IMU2, 1006751487, 0.02318233, -0.05587705, 0.05905173, 0.5273003, 0.2284338, -9.878105, 0, 0, 43.875, 1, 1
MAG, 1006831080, 222, -82, 256, -183, 25, 200, 0, 0, 0, 1
MAG2, 1006831085, 129, -119, 355, 40, 539, -758, 0, 0, 0, 1
STAT, 1006831227, 0, 0, 1, 2, 0, 1
ATT, 1006852255, 0.00, -1.11, 0.00, 0.07, 0.00, 16.67, 0.08, 0.00
PIDR, 1006852260, 2.775, 2.55315, 0, 1.420306, 0, 0
PIDP, 1006852264, -0.1466342, -0.09079102, 0, -0.02047552, 0, 0
PIDY, 1006852268, 0, 0, 0, 0, 0, 0
PIDS, 1006852272, 0, 0, 0, 0, 0, 0
EKF1, 1006852286, 0.54, -3.08, 0.00, 0, 0, 0, 0, 0, 0, 0.00, 0.00, 0.00
EKF2, 1006852292, 0, 0, 0, 0.00, 0.00, 0, 0, 0, 0, 0, 0
EKF3, 1006852297, 0.00, 0.00, 0.00, 0.00, 0.00, 0.00, 0, 0, 0, 0.00
EKF4, 1006852310, 0.00, 0.00, 0.00, 0.00, 0.00, 0.00, 0.00, 0, 0, 128, 0, 8192
IMU, 1006852321, 0.00840223, 0.003620978, 0.00176511, 0.4498795, 0.2809886, -9.838181, 0, 0, 43.28809, 1, 1
IMU2, 1006852321, 0.02445864, -0.05165344, 0.06555036, 0.4544978, 0.2325821, -9.886079, 0, 0, 44, 1, 1
GPS, 1006931310, 1, 0, 0, 0, 99.99, 40.4703212, -3.8091502, -0.58, 501.68, 0.00, 0.00, 0, 1
GPA, 1006931315, 99.99, 366.00, 87.32, 277.35
MAG, 1006931425, 223, -83, 255, -183, 25, 200, 0, 0, 0, 1
MAG2, 1006931429, 128, -117, 356, 40, 539, -758, 0, 0, 0, 1
ATT, 1006951530, 0.00, -1.12, 0.00, 0.02, 0.00, 16.67, 0.11, 0.00
PIDR, 1006951535, 2.8, 2.576151, 0, 1.466601, 0, 0
PIDP, 1006951539, -0.02130132, -0.01318907, 0, 0.0001937059, 0, 0
PIDY, 1006951543, 0, 0, 0, 0, 0, 0
PIDS, 1006951547, 0, 0, 0, 0, 0, 0
EKF1, 1006951609, 0.54, -3.08, 0.00, 0, 0, 0, 0, 0, 0, 0.00, 0.00, 0.00
EKF2, 1006951615, 0, 0, 0, 0.00, 0.00, 0, 0, 0, 0, 0, 0
EKF3, 1006951620, 0.00, 0.00, 0.00, 0.00, 0.00, 0.00, 0, 0, 0, 0.00
EKF4, 1006951683, 0.00, 0.00, 0.00, 0.00, 0.00, 0.00, 0.00, 0, 0, 128, 0, 8192
IMU, 1006951696, 0.006190543, 0.005110976, 0.002682834, 0.4513229, 0.2919405, -9.840092, 0, 0, 43.24377, 1, 1
IMU2, 1006951696, 0.02184821, -0.04874445, 0.06199606, 0.4286516, 0.2382069, -9.918919, 0, 0, 44, 1, 1
MAG, 1007031345, 225, -79, 255, -183, 25, 200, 0, 0, 0, 1
MAG2, 1007031349, 128, -117, 356, 40, 539, -758, 0, 0, 0, 1
STAT, 1007031468, 0, 0, 1, 2, 0, 1
ATT, 1007051256, 0.00, -1.11, 0.00, -0.24, 0.00, 16.68, 0.11, 0.00
PIDR, 1007051261, 2.775, 2.55315, 0, 1.484592, 0, 0
PIDP, 1007051266, 0.6281716, 0.3889429, 0, 0.1277937, 0, 0
PIDY, 1007051270, 0, 0, 0, 0, 0, 0
PIDS, 1007051274, 0, 0, 0, 0, 0, 0
EKF1, 1007051287, 0.54, -3.08, 0.00, 0, 0, 0, 0, 0, 0, 0.00, 0.00, 0.00
EKF2, 1007051294, 0, 0, 0, 0.00, 0.00, 0, 0, 0, 0, 0, 0
EKF3, 1007051299, 0.00, 0.00, 0.00, 0.00, 0.00, 0.00, 0, 0, 0, 0.00
EKF4, 1007051312, 0.00, 0.00, 0.00, 0.00, 0.00, 0.00, 0.00, 0, 0, 128, 0, 8192
IMU, 1007051385, 0.005341954, 0.004223703, 0.001908091, 0.4524871, 0.2695919, -9.821436, 0, 0, 43.24377, 1, 1
IMU2, 1007051385, 0.02238891, -0.05301146, 0.05875181, 0.3665058, 0.2139122, -9.842912, 0, 0, 43.875, 1, 1
GPS, 1007131352, 1, 0, 0, 0, 99.99, 40.4703212, -3.8091502, -0.45, 501.68, 0.00, 0.00, 0, 1
GPA, 1007131356, 99.99, 387.12, 102.20, 277.38
MAG, 1007131479, 227, -79, 256, -183, 25, 200, 0, 0, 0, 1
MAG2, 1007131483, 128, -118, 356, 40, 539, -758, 0, 0, 0, 1
ATT, 1007152260, 0.00, -1.12, 0.00, -0.52, 0.00, 16.67, 0.14, 0.00
PIDR, 1007152265, 2.8, 2.576151, 0, 1.507726, 0, 0
PIDP, 1007152269, 1.328765, 0.8227271, 0, 0.1595684, 0, 0
PIDY, 1007152273, 0, 0, 0, 0, 0, 0
PIDS, 1007152277, 0, 0, 0, 0, 0, 0
EKF1, 1007152291, 0.54, -3.08, 0.00, 0, 0, 0, 0, 0, 0, 0.00, 0.00, 0.00
EKF2, 1007152297, 0, 0, 0, 0.00, 0.00, 0, 0, 0, 0, 0, 0
EKF3, 1007152302, 0.00, 0.00, 0.00, 0.00, 0.00, 0.00, 0, 0, 0, 0.00
EKF4, 1007152316, 0.00, 0.00, 0.00, 0.00, 0.00, 0.00, 0.00, 0, 0, 128, 0, 8192
IMU, 1007152327, 0.006937759, 0.006228273, 0.002408331, 0.453976, 0.2722126, -9.845381, 0, 0, 43.28809, 1, 1
IMU2, 1007152327, 0.02016994, -0.04189955, 0.05790274, 0.4719376, 0.1711988, -9.885353, 0, 0, 43.875, 1, 1
MAG, 1007231353, 223, -78, 255, -183, 25, 200, 0, 0, 0, 1
MAG2, 1007231357, 126, -117, 354, 40, 539, -758, 0, 0, 0, 1
STAT, 1007231443, 0, 0, 1, 2, 0, 1
ATT, 1007251158, 0.00, -1.10, 0.00, -0.82, 0.00, 16.65, 0.14, 0.00
PIDR, 1007251163, 2.75, 2.530148, 0, 1.391173, 0, 0
PIDP, 1007251168, 2.077776, 1.28649, 0, 0.3268592, 0, 0
PIDY, 1007251172, 0, 0, 0, 0, 0, 0
PIDS, 1007251176, 0, 0, 0, 0, 0, 0
EKF1, 1007251282, 0.54, -3.08, 0.00, 0, 0, 0, 0, 0, 0, 0.00, 0.00, 0.00
EKF2, 1007251289, 0, 0, 0, 0.00, 0.00, 0, 0, 0, 0, 0, 0
EKF3, 1007251294, 0.00, 0.00, 0.00, 0.00, 0.00, 0.00, 0, 0, 0, 0.00
EKF4, 1007251307, 0.00, 0.00, 0.00, 0.00, 0.00, 0.00, 0.00, 0, 0, 128, 0, 8192
IMU, 1007251318, 0.008209825, 0.003227227, 0.001757424, 0.4474689, 0.2692945, -9.839072, 0, 0, 43.24377, 1, 1
IMU2, 1007251318, 0.02829201, -0.04953039, 0.0624915, 0.4538671, 0.2779636, -9.865341, 0, 0, 44, 1, 1
GPS, 1007331356, 1, 0, 0, 0, 99.99, 40.4703212, -3.8091502, -0.52, 501.68, 0.00, 0.00, 0, 1
GPA, 1007331361, 99.99, 408.08, 117.08, 277.41
MAG, 1007331450, 225, -80, 256, -183, 25, 200, 0, 0, 0, 1
MAG2, 1007331455, 127, -117, 354, 40, 539, -758, 0, 0, 0, 1
ATT, 1007352014, 0.00, -1.09, 0.00, -1.10, 0.00, 16.64, 0.13, 0.00
PIDR, 1007352027, 2.725, 2.507147, 0, 1.250983, 0, 0
PIDP, 1007352032, 2.777462, 1.719712, 0, 0.4624585, 0, 0
PIDY, 1007352036, 0, 0, 0, 0, 0, 0
PIDS, 1007352040, 0, 0, 0, 0, 0, 0
EKF1, 1007352053, 0.54, -3.08, 0.00, 0, 0, 0, 0, 0, 0, 0.00, 0.00, 0.00
EKF2, 1007352060, 0, 0, 0, 0.00, 0.00, 0, 0, 0, 0, 0, 0
EKF3, 1007352065, 0.00, 0.00, 0.00, 0.00, 0.00, 0.00, 0, 0, 0, 0.00
EKF4, 1007352079, 0.00, 0.00, 0.00, 0.00, 0.00, 0.00, 0.00, 0, 0, 128, 0, 8192
IMU, 1007352089, 0.01021901, 0.005736216, 0.002314747, 0.4605057, 0.2816501, -9.836833, 0, 0, 43.28809, 1, 1
IMU2, 1007352089, 0.03231126, -0.0529939, 0.06025041, 0.4830112, 0.2130366, -9.907002, 0, 0, 44, 1, 1
MAG, 1007431159, 225, -78, 254, -183, 25, 200, 0, 0, 0, 1
MAG2, 1007431163, 126, -117, 354, 40, 539, -758, 0, 0, 0, 1
STAT, 1007431242, 0, 0, 1, 2, 0, 1
ATT, 1007451173, 0.00, -1.09, 0.00, -1.22, 0.00, 16.64, 0.13, 0.00
PIDR, 1007451178, 2.725, 2.507147, 0, 1.41341, 0, 0
PIDP, 1007451182, 3.077557, 1.905521, 0, 0.4933181, 0, 0
PIDY, 1007451186, 0, 0, 0, 0, 0, 0
PIDS, 1007451190, 0, 0, 0, 0, 0, 0
EKF1, 1007451204, 0.54, -3.08, 0.00, 0, 0, 0, 0, 0, 0, 0.00, 0.00, 0.00
EKF2, 1007451211, 0, 0, 0, 0.00, 0.00, 0, 0, 0, 0, 0, 0
EKF3, 1007451216, 0.00, 0.00, 0.00, 0.00, 0.00, 0.00, 0, 0, 0, 0.00
EKF4, 1007451229, 0.00, 0.00, 0.00, 0.00, 0.00, 0.00, 0.00, 0, 0, 128, 0, 8192
IMU, 1007451240, 0.006522228, 0.007097068, 0.002355583, 0.4627435, 0.2901684, -9.870141, 0, 0, 43.33241, 1, 1
IMU2, 1007451240, 0.02287048, -0.04871026, 0.06049163, 0.4759151, 0.2277855, -9.872715, 0, 0, 43.875, 1, 1
GPS, 1007531070, 1, 0, 0, 0, 99.99, 40.4703212, -3.8091502, -0.55, 501.68, 0.00, 0.00, 0, 1
GPA, 1007531074, 99.99, 429.28, 131.96, 277.44
MAG, 1007531171, 224, -80, 256, -183, 25, 200, 0, 0, 0, 1
MAG2, 1007531175, 127, -116, 354, 40, 539, -758, 0, 0, 0, 1
ATT, 1007551947, 0.00, -1.10, 0.00, -1.33, 0.00, 16.62, 0.20, 0.00
PIDR, 1007551952, 2.75, 2.530148, 0, 1.401608, 0, 0
PIDP, 1007551956, 3.352748, 2.075909, 0, 0.5323724, 0, 0
PIDY, 1007551960, 0, 0, 0, 0, 0, 0
PIDS, 1007551964, 0, 0, 0, 0, 0, 0
EKF1, 1007551978, 0.54, -3.08, 0.00, 0, 0, 0, 0, 0, 0, 0.00, 0.00, 0.00
EKF2, 1007551984, 0, 0, 0, 0.00, 0.00, 0, 0, 0, 0, 0, 0
EKF3, 1007551989, 0.00, 0.00, 0.00, 0.00, 0.00, 0.00, 0, 0, 0, 0.00
EKF4, 1007552042, 0.00, 0.00, 0.00, 0.00, 0.00, 0.00, 0.00, 0, 0, 128, 0, 8192
IMU, 1007552053, 0.006992156, 0.005500297, 0.001516477, 0.4575582, 0.3132069, -9.84202, 0, 0, 43.24377, 1, 1
IMU2, 1007552053, 0.02415065, -0.0477991, 0.06182388, 0.5638484, 0.1097571, -9.846273, 0, 0, 43.75, 1, 1
MAG, 1007631022, 227, -81, 256, -183, 25, 200, 0, 0, 0, 1
MAG2, 1007631026, 127, -117, 353, 40, 539, -758, 0, 0, 0, 1
STAT, 1007631452, 0, 0, 1, 2, 0, 1
STAT, 1007631743, 0, 0, 1, 2, 0, 1
ATT, 1007651517, 0.00, -1.10, 0.00, -0.80, 0.00, 16.63, 0.20, 0.00
PIDR, 1007651523, 2.75, 2.530148, 0, 1.619179, 0, 0
PIDP, 1007651527, 2.028093, 1.255727, 0, 0.362431, 0, 0
PIDY, 1007651531, 0, 0, 0, 0, 0, 0
PIDS, 1007651535, 0, 0, 0, 0, 0, 0
EKF1, 1007651549, 0.54, -3.08, 0.00, 0, 0, 0, 0, 0, 0, 0.00, 0.00, 0.00
EKF2, 1007651555, 0, 0, 0, 0.00, 0.00, 0, 0, 0, 0, 0, 0
EKF3, 1007651560, 0.00, 0.00, 0.00, 0.00, 0.00, 0.00, 0, 0, 0, 0.00
EKF4, 1007651573, 0.00, 0.00, 0.00, 0.00, 0.00, 0.00, 0.00, 0, 0, 128, 0, 8192
IMU, 1007651584, 0.001032057, 0.003925322, 0.002478756, 0.4532166, 0.2992981, -9.830558, 0, 0, 43.28809, 1, 1
IMU2, 1007651584, 0.01678043, -0.05516587, 0.0657394, 0.5380605, 0.2142645, -9.851141, 0, 0, 44, 1, 1
GPS, 1007731120, 1, 0, 0, 0, 99.99, 40.4703212, -3.8091502, -0.50, 501.68, 0.00, 0.00, 0, 1
GPA, 1007731125, 99.99, 450.32, 146.88, 277.47
MAG, 1007731190, 224, -77, 255, -183, 25, 200, 0, 0, 0, 1
MAG2, 1007731195, 128, -118, 355, 40, 539, -758, 0, 0, 0, 1
ATT, 1007751879, 0.00, -1.11, 0.00, -0.25, 0.00, 16.63, 0.20, 0.00
PIDR, 1007751884, 2.775, 2.55315, 0, 1.43725, 0, 0
PIDP, 1007751889, 0.6534233, 0.4045779, 0, 0.09308635, 0, 0
PIDY, 1007751893, 0, 0, 0, 0, 0, 0
PIDS, 1007751897, 0, 0, 0, 0, 0, 0
EKF1, 1007751910, 0.54, -3.08, 0.00, 0, 0, 0, 0, 0, 0, 0.00, 0.00, 0.00
EKF2, 1007751917, 0, 0, 0, 0.00, 0.00, 0, 0, 0, 0, 0, 0
EKF3, 1007751922, 0.00, 0.00, 0.00, 0.00, 0.00, 0.00, 0, 0, 0, 0.00
EKF4, 1007751935, 0.00, 0.00, 0.00, 0.00, 0.00, 0.00, 0.00, 0, 0, 128, 0, 8192
IMU, 1007751946, 0.01035346, 0.005181034, 0.002373735, 0.4423871, 0.2732766, -9.835568, 0, 0, 43.28809, 1, 1
IMU2, 1007751946, 0.02036088, -0.04592865, 0.06208914, 0.5106595, 0.1892563, -9.964506, 0, 0, 44, 1, 1
MAG, 1007831476, 226, -80, 255, -183, 25, 200, 0, 0, 0, 1
MAG2, 1007831481, 128, -118, 355, 40, 539, -758, 0, 0, 0, 1
STAT, 1007834113, 0, 0, 1, 2, 0, 1
ATT, 1007856194, 0.00, -1.10, 0.00, -0.23, 0.00, 16.61, 0.18, 0.00
PIDR, 1007856200, 2.75, 2.530148, 0, 1.410537, 0, 0
PIDP, 1007856204, 0.6029051, 0.3732987, 0, 0.0671778, 0, 0
PIDY, 1007856208, 0, 0, 0, 0, 0, 0
PIDS, 1007856212, 0, 0, 0, 0, 0, 0
EKF1, 1007856226, 0.54, -3.08, 0.00, 0, 0, 0, 0, 0, 0, 0.00, 0.00, 0.00
EKF2, 1007856232, 0, 0, 0, 0.00, 0.00, 0, 0, 0, 0, 0, 0
EKF3, 1007856237, 0.00, 0.00, 0.00, 0.00, 0.00, 0.00, 0, 0, 0, 0.00
EKF4, 1007856258, 0.00, 0.00, 0.00, 0.00, 0.00, 0.00, 0.00, 0, 0, 128, 0, 8192
IMU, 1007856269, 0.009085022, 0.005967045, 0.002144313, 0.463406, 0.2973159, -9.8312, 0, 0, 43.33241, 1, 1
IMU2, 1007856269, 0.02294116, -0.04246032, 0.0643529, 0.4212034, 0.2429026, -9.795896, 0, 0, 43.875, 1, 1
GPS, 1007931177, 1, 0, 0, 0, 99.99, 40.4703212, -3.8091502, -0.61, 501.68, 0.00, 0.00, 0, 1
GPA, 1007931181, 99.99, 471.36, 161.76, 277.50
MAG, 1007931250, 226, -80, 256, -183, 25, 200, 0, 0, 0, 1
MAG2, 1007931254, 128, -117, 356, 40, 539, -758, 0, 0, 0, 1
ATT, 1007951581, 0.00, -1.09, 0.00, -0.35, 0.00, 16.60, 0.18, 0.00
PIDR, 1007951586, 2.725, 2.507147, 0, 1.492917, 0, 0
PIDP, 1007951590, 0.9024804, 0.5587857, 0, 0.1298069, 0, 0
PIDY, 1007951594, 0, 0, 0, 0, 0, 0
PIDS, 1007951598, 0, 0, 0, 0, 0, 0
EKF1, 1007951668, 0.54, -3.08, 0.00, 0, 0, 0, 0, 0, 0, 0.00, 0.00, 0.00
EKF2, 1007951674, 0, 0, 0, 0.00, 0.00, 0, 0, 0, 0, 0, 0
EKF3, 1007951679, 0.00, 0.00, 0.00, 0.00, 0.00, 0.00, 0, 0, 0, 0.00
EKF4, 1007951693, 0.00, 0.00, 0.00, 0.00, 0.00, 0.00, 0.00, 0, 0, 128, 0, 8192
IMU, 1007951703, 0.00475976, 0.003933833, 0.003117641, 0.4651527, 0.2638047, -9.803903, 0, 0, 43.24377, 1, 1
IMU2, 1007951703, 0.02011943, -0.04300161, 0.0614666, 0.5451391, 0.1811381, -9.745391, 0, 0, 44, 1, 1
MAG, 1008031352, 225, -80, 255, -183, 25, 200, 0, 0, 0, 1
MAG2, 1008031357, 127, -118, 355, 40, 539, -758, 0, 0, 0, 1
STAT, 1008032460, 0, 0, 1, 2, 0, 1
ATT, 1008051239, 0.00, -1.10, 0.00, -0.32, 0.00, 16.59, 0.15, 0.00
PIDR, 1008051244, 2.75, 2.530148, 0, 1.418656, 0, 0
PIDP, 1008051248, 0.8279594, 0.5126448, 0, 0.1454399, 0, 0
PIDY, 1008051252, 0, 0, 0, 0, 0, 0
PIDS, 1008051256, 0, 0, 0, 0, 0, 0
EKF1, 1008051270, 0.54, -3.08, 0.00, 0, 0, 0, 0, 0, 0, 0.00, 0.00, 0.00
EKF2, 1008051276, 0, 0, 0, 0.00, 0.00, 0, 0, 0, 0, 0, 0
EKF3, 1008051281, 0.00, 0.00, 0.00, 0.00, 0.00, 0.00, 0, 0, 0, 0.00
EKF4, 1008051338, 0.00, 0.00, 0.00, 0.00, 0.00, 0.00, 0.00, 0, 0, 128, 0, 8192
IMU, 1008051349, 0.00859391, 0.005027025, 0.002393517, 0.4633577, 0.3051859, -9.851163, 0, 0, 43.28809, 1, 1
IMU2, 1008051349, 0.02277122, -0.0500681, 0.05735005, 0.4975961, 0.2385005, -9.900991, 0, 0, 44.125, 1, 1
GPS, 1008131322, 1, 0, 0, 0, 99.99, 40.4703212, -3.8091502, -0.49, 501.68, 0.00, 0.00, 0, 1
GPA, 1008131327, 99.99, 492.48, 176.72, 277.53
MAG, 1008131388, 227, -81, 256, -183, 25, 200, 0, 0, 0, 1
MAG2, 1008131392, 128, -118, 355, 40, 539, -758, 0, 0, 0, 1
ATT, 1008151844, 0.00, -1.10, 0.00, -0.25, 0.00, 16.59, 0.15, 0.00
PIDR, 1008151849, 2.75, 2.530148, 0, 1.360608, 0, 0
PIDP, 1008151853, 0.652907, 0.4042582, 0, 0.1164524, 0, 0
PIDY, 1008151857, 0, 0, 0, 0, 0, 0
PIDS, 1008151861, 0, 0, 0, 0, 0, 0
EKF1, 1008151875, 0.54, -3.08, 0.00, 0, 0, 0, 0, 0, 0, 0.00, 0.00, 0.00
EKF2, 1008151881, 0, 0, 0, 0.00, 0.00, 0, 0, 0, 0, 0, 0
EKF3, 1008151886, 0.00, 0.00, 0.00, 0.00, 0.00, 0.00, 0, 0, 0, 0.00
EKF4, 1008151904, 0.00, 0.00, 0.00, 0.00, 0.00, 0.00, 0.00, 0, 0, 128, 0, 8192
IMU, 1008151915, 0.007979466, 0.004517061, 0.003178725, 0.4527467, 0.3019758, -9.816321, 0, 0, 43.24377, 1, 1
IMU2, 1008151915, 0.02429273, -0.04789117, 0.06077518, 0.5426564, 0.2256679, -9.804199, 0, 0, 43.875, 1, 1
UBX1, 1008191140, 0, 112, 6, 1, 1387
UBX2, 1008191178, 0, -31, 105, 4, 112
MAG, 1008231337, 222, -79, 257, -183, 25, 200, 0, 0, 0, 1
MAG2, 1008231342, 127, -116, 353, 40, 539, -758, 0, 0, 0, 1
STAT, 1008231426, 0, 0, 1, 2, 0, 1
ATT, 1008251329, 0.00, -1.08, 0.00, -0.52, 0.00, 16.58, 0.18, 0.00
PIDR, 1008251334, 2.7, 2.484145, 0, 1.364462, 0, 0
PIDP, 1008251338, 1.327062, 0.8216727, 0, 0.2563638, 0, 0
PIDY, 1008251342, 0, 0, 0, 0, 0, 0
PIDS, 1008251346, 0, 0, 0, 0, 0, 0
EKF1, 1008251360, 0.54, -3.08, 0.00, 0, 0, 0, 0, 0, 0, 0.00, 0.00, 0.00
EKF2, 1008251367, 0, 0, 0, 0.00, 0.00, 0, 0, 0, 0, 0, 0
EKF3, 1008251372, 0.00, 0.00, 0.00, 0.00, 0.00, 0.00, 0, 0, 0, 0.00
EKF4, 1008251385, 0.00, 0.00, 0.00, 0.00, 0.00, 0.00, 0.00, 0, 0, 128, 0, 8192
IMU, 1008251396, 0.006931482, 0.003121831, 0.001883053, 0.4548335, 0.279897, -9.849834, 0, 0, 43.28809, 1, 1
IMU2, 1008251396, 0.02498351, -0.05467744, 0.05996111, 0.4473723, 0.1629017, -9.900227, 0, 0, 44, 1, 1
GPS, 1008330922, 1, 0, 0, 0, 99.99, 40.4703212, -3.8091502, -0.59, 501.68, 0.00, 0.00, 0, 1
GPA, 1008330927, 99.99, 513.60, 191.60, 277.56
MAG, 1008331028, 226, -80, 256, -183, 25, 200, 0, 0, 0, 1
MAG2, 1008331032, 126, -116, 353, 40, 539, -758, 0, 0, 0, 1
ATT, 1008351617, 0.00, -1.07, 0.00, -0.87, 0.00, 16.57, 0.18, 0.00
PIDR, 1008351622, 2.675, 2.461144, 0, 1.310964, 0, 0
PIDP, 1008351626, 2.20142, 1.363046, 0, 0.3382263, 0, 0
PIDY, 1008351681, 0, 0, 0, 0, 0, 0
PIDS, 1008351685, 0, 0, 0, 0, 0, 0
EKF1, 1008351699, 0.54, -3.08, 0.00, 0, 0, 0, 0, 0, 0, 0.00, 0.00, 0.00
EKF2, 1008351706, 0, 0, 0, 0.00, 0.00, 0, 0, 0, 0, 0, 0
EKF3, 1008351711, 0.00, 0.00, 0.00, 0.00, 0.00, 0.00, 0, 0, 0, 0.00
EKF4, 1008351724, 0.00, 0.00, 0.00, 0.00, 0.00, 0.00, 0.00, 0, 0, 128, 0, 8192
IMU, 1008351735, 0.008114843, 0.004444001, 0.001553724, 0.4689471, 0.2832781, -9.830838, 0, 0, 43.28809, 1, 1
IMU2, 1008351735, 0.02992793, -0.0486767, 0.06261782, 0.4969706, 0.2024371, -9.866418, 0, 0, 43.875, 1, 1
MAG, 1008431101, 221, -80, 255, -183, 25, 200, 0, 0, 0, 1
MAG2, 1008431105, 126, -117, 354, 40, 539, -758, 0, 0, 0, 1
STAT, 1008431198, 0, 0, 1, 2, 0, 1
ATT, 1008451461, 0.00, -1.07, 0.00, -0.95, 0.00, 16.57, 0.15, 0.00
PIDR, 1008451467, 2.675, 2.461144, 0, 1.513762, 0, 0
PIDP, 1008451471, 2.401402, 1.486868, 0, 0.4011524, 0, 0
PIDY, 1008451475, 0, 0, 0, 0, 0, 0
PIDS, 1008451479, 0, 0, 0, 0, 0, 0
EKF1, 1008451493, 0.54, -3.08, 0.00, 0, 0, 0, 0, 0, 0, 0.00, 0.00, 0.00
EKF2, 1008451499, 0, 0, 0, 0.00, 0.00, 0, 0, 0, 0, 0, 0
EKF3, 1008451504, 0.00, 0.00, 0.00, 0.00, 0.00, 0.00, 0, 0, 0, 0.00
EKF4, 1008451518, 0.00, 0.00, 0.00, 0.00, 0.00, 0.00, 0.00, 0, 0, 128, 0, 8192
IMU, 1008451529, 0.002720262, 0.00323221, 0.001843819, 0.4473206, 0.2953021, -9.802231, 0, 0, 43.33241, 1, 1
IMU2, 1008451529, 0.01889107, -0.05076561, 0.06205779, 0.4827026, 0.1845364, -9.855543, 0, 0, 44, 1, 1
GPS, 1008531104, 1, 0, 0, 0, 99.99, 40.4703212, -3.8091502, -0.41, 501.68, 0.00, 0.00, 0, 1
GPA, 1008531108, 99.99, 534.56, 206.52, 277.59
MAG, 1008531241, 227, -81, 255, -183, 25, 200, 0, 0, 0, 1
MAG2, 1008531245, 126, -117, 354, 40, 539, -758, 0, 0, 0, 1
ATT, 1008551305, 0.00, -1.06, 0.00, -0.96, 0.00, 16.57, 0.15, 0.00
PIDR, 1008551310, 2.65, 2.438143, 0, 1.257817, 0, 0
PIDP, 1008551554, 2.426088, 1.502152, 0, 0.4020956, 0, 0
PIDY, 1008551559, 0, 0, 0, 0, 0, 0
PIDS, 1008551563, 0, 0, 0, 0, 0, 0
EKF1, 1008551576, 0.54, -3.08, 0.00, 0, 0, 0, 0, 0, 0, 0.00, 0.00, 0.00
EKF2, 1008551583, 0, 0, 0, 0.00, 0.00, 0, 0, 0, 0, 0, 0
EKF3, 1008551588, 0.00, 0.00, 0.00, 0.00, 0.00, 0.00, 0, 0, 0, 0.00
EKF4, 1008551637, 0.00, 0.00, 0.00, 0.00, 0.00, 0.00, 0.00, 0, 0, 128, 0, 8192
IMU, 1008551648, 0.009675023, 0.005879789, 0.002305955, 0.453067, 0.2773364, -9.84369, 0, 0, 43.28809, 1, 1
IMU2, 1008551648, 0.02742631, -0.05362245, 0.05988643, 0.5131943, 0.1371567, -9.885597, 0, 0, 44, 1, 1
MAG, 1008631084, 226, -79, 257, -183, 25, 200, 0, 0, 0, 1
MAG2, 1008631088, 126, -118, 354, 40, 539, -758, 0, 0, 0, 1
STAT, 1008631218, 0, 0, 1, 2, 0, 1
STAT, 1008631257, 0, 0, 1, 2, 0, 1
